{ "school" : [
{"id":"28C2DDDD45AA","area":"taipei","org":"es","name":"臺北市關渡國小","en":"","addr":"[112]台北市北投區中央北路四段581號","lat":25.1264283,"lon":121.4662204},
{"id":"28C2DDDD43ED","area":"taipei","org":"es","name":"臺北市金華國小","en":"","addr":"[106]臺北市大安區永康里愛國東路79巷11號","lat":25.032275,"lon":121.527675},
{"id":"28C2DDDD4408","area":"taipei","org":"es","name":"臺北市民族國小","en":"","addr":"[105]臺北市松山區民生東路4段97巷7號","lat":25.059473,"lon":121.551815},
{"id":"28C2DDDD43F8","area":"taipei","org":"es","name":"臺北市國語實小","en":"","addr":"[100]臺北市中正區龍光里南海路58號","lat":25.030749,"lon":121.510590},
{"id":"28C2DDDD4423","area":"taipei","org":"es","name":"臺北市公館國小","en":"","addr":"[106]臺北市大安區基隆路4段41巷68弄2號","lat":25.012408,"lon":121.542808},
{"id":"28C2DDDD443A","area":"taipei","org":"es","name":"臺北市永吉國小","en":"","addr":"[110]臺北市信義區永春里松山路287巷5號","lat":25.043009,"lon":121.579885},
{"id":"28C2DDDD4418","area":"taipei","org":"es","name":"臺北市指南國小","en":"","addr":"[116]臺北市文山區指南路三段38巷5-2號","lat":24.976394,"lon":121.583635},
{"id":"28C2DDDD4534","area":"taipei","org":"es","name":"臺北市葫蘆國小","en":"","addr":"[111]臺北市士林區環河北路3段95號","lat":25.083742,"lon":121.506963},
{"id":"28C2DDDD43E5","area":"taipei","org":"es","name":"臺北市康寧國小","en":"","addr":"[114]臺北市內湖區清白里星雲街121號","lat":25.080037,"lon":121.595004},
{"id":"28C2DDDD43FC","area":"taipei","org":"es","name":"臺北市信義國小","en":"","addr":"[110]臺北市信義區松勤街60號","lat":25.031860,"lon":121.563206},
{"id":"28C2DDDD4414","area":"taipei","org":"es","name":"臺北市舊莊國小","en":"","addr":"[115]臺北市南港區舊莊里舊莊街1段100號","lat":25.040245,"lon":121.619539},
{"id":"28C2DDDD452E","area":"taipei","org":"sh","name":"臺北市私立復興實驗高中","en":"","addr":"[106]臺北市大安區敦化南路1段262 號","lat":25.039360,"lon":121.548383},
{"id":"28C2DDDD436F","area":"taipei","org":"es","name":"臺北市東園國小","en":"","addr":"[108]臺北市萬華區全德里東園街195號","lat":25.023163,"lon":121.497867},
{"id":"28C2DDDD4413","area":"taipei","org":"es","name":"臺北市中山國小","en":"","addr":"[104]臺北市中山區恆安里民權東路1段69號","lat":25.063052,"lon":121.526414},
{"id":"28C2DDDD450C","area":"taipei","org":"es","name":"臺北市西松國小","en":"","addr":"[105]臺北市松山區東光里三民路5號","lat":25.052302,"lon":121.563488},
{"id":"28C2DDDD47A4","area":"taipei","org":"es","name":"臺北市私立再興小學","en":"","addr":"[116]臺北市文山區明義里興隆路4段2號","lat":24.990528,"lon":121.558974},
{"id":"28C2DDDD43FD","area":"taipei","org":"es","name":"臺北市玉成國小","en":"","addr":"[115]臺北市南港區西新里向陽路31號","lat":25.053582,"lon":121.594769},
{"id":"28C2DDDD43F5","area":"taipei","org":"es","name":"臺北市實踐國小","en":"","addr":"[116]臺北市文山區樟文里忠順街1段4號","lat":24.983727,"lon":121.557639},
{"id":"28C2DDDD47AC","area":"taipei","org":"es","name":"臺北市大湖國小","en":"","addr":"[114]臺北市內湖區大湖里大湖山莊街170號","lat":25.088121,"lon":121.600480},
{"id":"28C2DDDD4790","area":"taipei","org":"es","name":"臺北市文湖國小","en":"","addr":"[114]臺北市內湖區西康里文湖街15號","lat":25.085771,"lon":121.560122},
{"id":"28C2DDDD441E","area":"taipei","org":"es","name":"臺北市大屯國小","en":"","addr":"[112]臺北市北投區大屯里復興三路312號","lat":25.154895,"lon":121.503983},
{"id":"28C2DDDD44B2","area":"taipei","org":"es","name":"臺北市永春國小","en":"","addr":"[110]臺北市信義區永春里松山路225巷48號","lat":25.044653,"lon":121.579079},
{"id":"28C2DDDD47B1","area":"taipei","org":"es","name":"臺北市修德國小","en":"","addr":"[115]臺北市南港區東新街118巷86號","lat":25.045532,"lon":121.589636},
{"id":"28C2DDDD4536","area":"taipei","org":"es","name":"臺北市中正國小","en":"","addr":"[104]臺北市中山區力行里龍江路62號","lat":25.050501,"lon":121.540410},
{"id":"28C2DDDD4404","area":"taipei","org":"es","name":"臺北市興德國小","en":"","addr":"[116]臺北市文山區興邦里興隆路2段235號","lat":25.001622,"lon":121.550770},
{"id":"28C2DDDD47B6","area":"taipei","org":"es","name":"臺北市桃源國小","en":"","addr":"[112]臺北市北投區中央北路3段40巷45號","lat":25.139705,"lon":121.484461},
{"id":"28C2DDDD4529","area":"taipei","org":"es","name":"臺北市雙園國小","en":"","addr":"[108]臺北市萬華區雙園里莒光路315號","lat":25.030392,"lon":121.498261},
{"id":"28C2DDDD4539","area":"taipei","org":"es","name":"臺北市芝山國小","en":"","addr":"[111]臺北市士林區芝山里德行東路285號","lat":25.110249,"lon":121.536439},
{"id":"28C2DDDD4505","area":"taipei","org":"es","name":"臺北市景興國小","en":"","addr":"[116]臺北市文山區興安里景華街150巷21號","lat":24.996434,"lon":121.548293},
{"id":"28C2DDDD4344","area":"taipei","org":"es","name":"臺北市百齡國小","en":"","addr":"[111]臺北市士林區福中里福港街205號","lat":25.086207,"lon":121.517850},
{"id":"28C2DDDD4376","area":"taipei","org":"es","name":"臺北市光仁小學","en":"","addr":"[108]臺北市萬華區壽德里萬大路423巷15號","lat":25.021416,"lon":121.499571},
{"id":"28C2DDDD4003","area":"taipei","org":"es","name":"臺北市內湖國小","en":"","addr":"[114]臺北市內湖區港富里內湖路二段41號","lat":25.079126,"lon":121.580239},
{"id":"28C2DDDD436E","area":"taipei","org":"es","name":"臺北市河堤國小","en":"","addr":"[100]臺北市中正區汀州路二段180號","lat":25.023230,"lon":121.522699},
{"id":"28C2DDDD437D","area":"taipei","org":"es","name":"臺北市幸安國小","en":"","addr":"[106]臺北市大安區民炤里仁愛路3段22號","lat":25.037684,"lon":121.534970},
{"id":"28C2DDDD4380","area":"taipei","org":"es","name":"臺北市雨聲國小","en":"","addr":"[111]臺北市士林區岩山里至誠路1段62巷70號","lat":25.102662,"lon":121.535265},
{"id":"28C2DDDD434A","area":"taipei","org":"es","name":"臺北市永安國小","en":"","addr":"[104]臺北市中山區明水路397巷19弄1號","lat":25.078776,"lon":121.549406},
{"id":"28C2DDDD4346","area":"taipei","org":"es","name":"臺北市螢橋國小","en":"","addr":"[100]臺北市中正區螢雪里詔安街29號","lat":25.025074,"lon":121.514332},
{"id":"28C2DDDD435A","area":"taipei","org":"es","name":"臺北市興華國小","en":"","addr":"[116]臺北市文山區興光里興隆路3段125巷6號","lat":24.998834,"lon":121.558722},
{"id":"28C2DDDD4371","area":"taipei","org":"es","name":"臺北市太平國小","en":"","addr":"[103]臺北市大同區南芳里延平北路2段239號","lat":25.061376,"lon":121.511449},
{"id":"28C2DDDD436C","area":"taipei","org":"es","name":"臺北市龍山國小","en":"","addr":"[108]臺北市萬華區青山里和平西路三段235號","lat":25.035285,"lon":121.496052},
{"id":"28C2DDDD436A","area":"taipei","org":"es","name":"臺北市延平國小","en":"","addr":"[103]臺北市大同區國慶里昌吉街97號","lat":25.066047,"lon":121.512454},
{"id":"28C2DDDD4367","area":"taipei","org":"es","name":"臺北市南港國小","en":"","addr":"[115]臺北市南港區三重里惠民街67號","lat":25.057163,"lon":121.610383},
{"id":"28C2DDDD437C","area":"taipei","org":"es","name":"臺北市麗湖國小","en":"","addr":"[114]臺北市內湖區金湖路363巷8號","lat":25.072992,"lon":121.601146},
{"id":"28C2DDDD4394","area":"taipei","org":"es","name":"臺北市興雅國小","en":"","addr":"[110]臺北市信義區雅祥里基隆路1段83巷9號","lat":25.046751,"lon":121.570022},
{"id":"28C2DDDD4378","area":"taipei","org":"es","name":"臺北市健康國小","en":"","addr":"[105]臺北市松山區延壽街168號","lat":25.056667,"lon":121.562785},
{"id":"28C2DDDD4338","area":"taipei","org":"es","name":"臺北市泉源國小","en":"","addr":"[112]臺北市北投區泉源里東昇路34號","lat":25.149216,"lon":121.524364},
{"id":"28C2DDDD4349","area":"taipei","org":"es","name":"臺北市文化國小","en":"","addr":"[112]臺北市北投區文化里文化三路1號","lat":25.137156,"lon":121.496507},
{"id":"28C2DDDD434F","area":"taipei","org":"es","name":"臺北市懷生國小","en":"","addr":"[104]臺北市中山區埤頭里安東街16巷2號","lat":25.045240,"lon":121.541784},
{"id":"28C2DDDD4360","area":"taipei","org":"es","name":"臺北市劍潭國小","en":"","addr":"[111]臺北市士林區明勝里通河街16號","lat":25.079947,"lon":121.522984},
{"id":"28C2DDDD4354","area":"taipei","org":"es","name":"臺北市木柵國小","en":"","addr":"[116]臺北市文山區木柵里木柵路3段191號","lat":24.990270,"lon":121.570149},
{"id":"28C2DDDD4356","area":"taipei","org":"es","name":"臺北市建安國小","en":"","addr":"[106]臺北市大安區龍雲里大安路2段99號","lat":25.029397,"lon":121.546170},
{"id":"28C2DDDD434D","area":"taipei","org":"es","name":"臺北市南湖國小","en":"","addr":"[114]臺北市內湖區葫洲里康寧路3段200號","lat":25.076890,"lon":121.613562},
{"id":"28C2DDDD435D","area":"taipei","org":"es","name":"臺北市雙溪國小","en":"","addr":"[111]臺北市士林區翠山里中社路2段66號","lat":25.106069,"lon":121.563886},
{"id":"28C2DDDD4374","area":"taipei","org":"es","name":"臺北市湖山國小","en":"","addr":"[112]臺北市北投區湖山里湖底路11號","lat":25.149653,"lon":121.535435},
{"id":"28C2DDDD4377","area":"taipei","org":"es","name":"臺北市華江國小","en":"","addr":"[108]臺北市萬華區環河南路2段250巷42弄2號","lat":25.034069,"lon":121.491181},
{"id":"28C2DDDD4350","area":"taipei","org":"es","name":"臺北市吳興國小","en":"","addr":"[110]臺北市信義區松仁路226號","lat":25.025743,"lon":121.568716},
{"id":"28C2DDDD4372","area":"taipei","org":"es","name":"臺北市潭美國小","en":"","addr":"[114]臺北市內湖區石潭里新明路22號","lat":25.060345,"lon":121.590590},
{"id":"28C2DDDD4359","area":"taipei","org":"es","name":"臺北市新民小學","en":"","addr":"[106]臺北市大安區龍坡里辛亥路1段113號","lat":25.022224,"lon":121.531661},
{"id":"28C2DDDD4373","area":"taipei","org":"es","name":"臺北市平等國小","en":"","addr":"[111]臺北市士林區平等里平菁街101號","lat":25.129106,"lon":121.576511},
{"id":"28C2DDDD4357","area":"taipei","org":"es","name":"臺北市永建國小","en":"","addr":"[116]臺北市文山區華興里試院路2號","lat":24.987580,"lon":121.550043},
{"id":"28C2DDDD4345","area":"taipei","org":"es","name":"臺北市三民國小","en":"","addr":"[105]臺北市松山區莊敬里民權東路五段1號","lat":25.063178,"lon":121.564286},
{"id":"28C2DDDD4238","area":"taipei","org":"es","name":"臺北市碧湖國小","en":"","addr":"[114]臺北市內湖區內湖里金龍路100號","lat":25.085311,"lon":121.591110},
{"id":"28C2DDDD423A","area":"taipei","org":"es","name":"臺北市西園國小","en":"","addr":"[108]臺北市萬華區日善里東園街73巷65號","lat":25.026663,"lon":121.498884},
{"id":"28C2DDDD4229","area":"taipei","org":"es","name":"臺北市石牌國小","en":"","addr":"[112]臺北市北投區吉利里致遠二路80號","lat":25.115688,"lon":121.511705},
{"id":"28C2DDDD4233","area":"taipei","org":"es","name":"臺北市東門國小","en":"","addr":"[100]臺北市中正區東門里仁愛路一段2-4號","lat":25.038642,"lon":121.520876},
{"id":"28C2DDDD423F","area":"taipei","org":"es","name":"臺北市五常國小","en":"","addr":"[104]臺北市中山區下埤里五常街16號","lat":25.064139,"lon":121.542202},
{"id":"28C2DDDD4244","area":"taipei","org":"es","name":"臺北市天母國小","en":"","addr":"[111]臺北市士林區天玉里天玉街12號","lat":25.119791,"lon":121.527533},
{"id":"28C2DDDD415E","area":"taipei","org":"es","name":"臺北市湖田國小","en":"","addr":"[112]臺北市北投區湖田里竹子湖路17之2號","lat":25.168429,"lon":121.538771},
{"id":"28C2DDDD4236","area":"taipei","org":"es","name":"臺北市日新國小","en":"","addr":"[103]臺北市大同區星明里太原路151號","lat":25.054494,"lon":121.516518},
{"id":"28C2DDDD4239","area":"taipei","org":"es","name":"臺北市文昌國小","en":"","addr":"[111]臺北市士林區文林路615巷20號","lat":25.086572,"lon":121.525615},
{"id":"28C2DDDD422E","area":"taipei","org":"es","name":"臺北市陽明山國小","en":"","addr":"[111]臺北市士林區新安里仰德大道3段61號","lat":25.119332,"lon":121.552817},
{"id":"28C2DDDD4230","area":"taipei","org":"es","name":"臺北市大安國小","en":"","addr":"[106]臺北市大安區芳和里臥龍街129號","lat":25.020009,"lon":121.549095},
{"id":"28C2DDDD4242","area":"taipei","org":"es","name":"臺北市雨農國小","en":"","addr":"[111]臺北市士林區名山里忠義街1號","lat":25.105260,"lon":121.529854},
{"id":"28C2DDDD423E","area":"taipei","org":"es","name":"臺北市西門國小","en":"","addr":"[108]臺北市萬華區西門里成都路98號","lat":25.043172,"lon":121.503597},
{"id":"28C2DDDD4243","area":"taipei","org":"es","name":"臺北市松山國小","en":"","addr":"[105]臺北市松山區八德路四段746號","lat":25.050501,"lon":121.577666},
{"id":"28C2DDDD4240","area":"taipei","org":"es","name":"臺北市薇閣小學","en":"","addr":"[112]臺北市北投區長安里育仁路106號","lat":25.136058,"lon":121.500880},
{"id":"28C2DDDD423B","area":"taipei","org":"es","name":"臺北市大龍國小","en":"","addr":"[103]臺北市大同區保安里哈密街47號","lat":25.073409,"lon":121.516693},
{"id":"28C2DDDD41C2","area":"taipei","org":"es","name":"臺北市天母國小","en":"","addr":"[111]臺北市士林區天玉里天玉街12號","lat":25.119791,"lon":121.527533},
{"id":"28C2DDDD415C","area":"taipei","org":"es","name":"臺北市龍安國小","en":"","addr":"[106]臺北市大安區龍門里新生南路3段33號","lat":25.023922,"lon":121.534885},
{"id":"28C2DDDD41FA","area":"taipei","org":"es","name":"臺北市民生國小","en":"","addr":"[105]臺北市松山區敦化北路199巷18號","lat":25.056515,"lon":121.552179},
{"id":"28C2DDDD41D6","area":"taipei","org":"es","name":"臺北市成德國小","en":"","addr":"[115]臺北市南港區聯成里東新街65號","lat":25.046880,"lon":121.586908},
{"id":"28C2DDDD4149","area":"taipei","org":"es","name":"臺北市東湖國小","en":"","addr":"[114]臺北市內湖區東湖里東湖路115號","lat":25.069160,"lon":121.616068},
{"id":"28C2DDDD400A","area":"taipei","org":"es","name":"臺北市敦化國小","en":"","addr":"[105]臺北市松山區中正里敦化北路2號","lat":25.049104,"lon":121.548531},
{"id":"28C2DDDD4246","area":"taipei","org":"es","name":"臺北市清江國小","en":"","addr":"[112]臺北市北投區奇岩里公館路220號","lat":25.127112,"lon":121.507498},
{"id":"74DA3895C2D6","area":"taipei","org":"es","name":"臺北市古亭國小","en":"","addr":"[106]臺北市大安區古風里羅斯福路3段201號","lat":25.020583,"lon":121.528778},
{"id":"28C2DDDD4231","area":"taipei","org":"es","name":"臺北市溪口國小","en":"","addr":"[116]臺北市文山區景慶里景福街225號","lat":24.994130,"lon":121.538757},
{"id":"28C2DDDD41EB","area":"taipei","org":"es","name":"臺北市立農國小","en":"","addr":"[112]臺北市北投區立農里立農街1段250號","lat":25.119492,"lon":121.505207},
{"id":"28C2DDDD3FCD","area":"taipei","org":"es","name":"臺北市福星國小","en":"","addr":"[108]臺北市萬華區福星里中華路一段66號","lat":25.046783,"lon":121.508905},
{"id":"28C2DDDD4234","area":"taipei","org":"es","name":"臺北市興隆國小","en":"","addr":"[116]臺北市文山區興望里福興路2號","lat":25.002436,"lon":121.551888},
{"id":"28C2DDDD41CD","area":"taipei","org":"es","name":"臺北市西湖國小","en":"","addr":"[114]臺北市內湖區西湖里環山路1段25號","lat":25.083830,"lon":121.565699},
{"id":"28C2DDDD41ED","area":"taipei","org":"es","name":"臺北市東新國小","en":"","addr":"[115]臺北市南港區東新里興南街62號","lat":25.055459,"lon":121.602219},
{"id":"28C2DDDD423C","area":"taipei","org":"es","name":"臺北市萬興國小","en":"","addr":"[116]臺北市文山區萬興里秀明路2段114號","lat":24.990429,"lon":121.576593},
{"id":"28C2DDDD41B2","area":"taipei","org":"es","name":"臺北市大佳國小","en":"","addr":"[104]臺北市中山區大佳里6鄰濱江街107號","lat":25.073294,"lon":121.536367},
{"id":"28C2DDDD4559","area":"taipei","org":"es","name":"臺北市三興國小","en":"","addr":"[110]臺北市信義區景聯里基隆路2段99號","lat":25.029467,"lon":121.558267},
{"id":"28C2DDDD457C","area":"taipei","org":"es","name":"臺北市士林國小","en":"","addr":"[111]臺北市士林區福德里大東路165號","lat":25.093299,"lon":121.524883},
{"id":"28C2DDDD456C","area":"taipei","org":"es","name":"臺北市蓬萊國小","en":"","addr":"[103]臺北市大同區星明里寧夏路35號","lat":25.056387,"lon":121.515710},
{"id":"28C2DDDD456A","area":"taipei","org":"es","name":"臺北市仁愛國小","en":"","addr":"[106]臺北市大安區敦安里安和路1段60號","lat":25.035773,"lon":121.552350},
{"id":"28C2DDDD4595","area":"taipei","org":"es","name":"臺北市靜心小學","en":"","addr":"[116]臺北市文山區興福里興隆路2段46號","lat":24.998920,"lon":121.546685},
{"id":"28C2DDDD4571","area":"taipei","org":"es","name":"臺北市萬福國小","en":"","addr":"[116]臺北市文山區羅斯福5段170巷32號","lat":25.004893,"lon":121.536712},
{"id":"28C2DDDD4598","area":"taipei","org":"es","name":"臺北市永樂國小","en":"","addr":"[103]臺北市大同區南芳里延平北路2段266號","lat":25.061297,"lon":121.511085},
{"id":"28C2DDDD457D","area":"taipei","org":"es","name":"臺北市民權國小","en":"","addr":"[105]臺北市松山區民權東路四段200號","lat":25.062525,"lon":121.562292},
{"id":"28C2DDDD4568","area":"taipei","org":"es","name":"臺北市大同國小","en":"","addr":"[103]臺北市大同區蓬萊里大龍街51號","lat":25.065281,"lon":121.516175},
{"id":"28C2DDDD45A2","area":"taipei","org":"es","name":"臺北市華興小學","en":"","addr":"[111]臺北市士林區芝山里仰德大道1段101號","lat":25.104863,"lon":121.538544},
{"id":"28C2DDDD4578","area":"taipei","org":"es","name":"臺北市武功國小","en":"","addr":"[116]臺北市文山區萬祥里興隆路1段68號","lat":25.003889,"lon":121.540493},
{"id":"28C2DDDD457E","area":"taipei","org":"es","name":"臺北市雙蓮國小","en":"","addr":"[103]臺北市大同區民權里錦西街51號","lat":25.060272,"lon":121.516297},
{"id":"28C2DDDD4599","area":"taipei","org":"es","name":"臺北市大理國小","en":"","addr":"[108]臺北市萬華區綠堤里艋舺大道389號","lat":25.031305,"lon":121.493913},
{"id":"28C2DDDD4579","area":"taipei","org":"es","name":"臺北市博愛國小","en":"","addr":"[110]臺北市信義區松仁路22鄰95巷20號","lat":25.039413,"lon":121.568196},
{"id":"28C2DDDD4597","area":"taipei","org":"es","name":"臺北市麗山國小","en":"","addr":"[114]臺北市內湖區港都里港華街100號","lat":25.083679,"lon":121.572465},
{"id":"28C2DDDD45A4","area":"taipei","org":"es","name":"臺北市蘭雅國小","en":"","addr":"[111]臺北市士林區蘭興里磺溪街57號","lat":25.108410,"lon":121.523137},
{"id":"28C2DDDD459B","area":"taipei","org":"es","name":"臺北市胡適國小","en":"","addr":"[115]臺北市南港區中研里舊莊街1段1號","lat":25.042389,"lon":121.617235},
{"id":"28C2DDDD458A","area":"taipei","org":"es","name":"臺北市明德國小","en":"","addr":"[112]臺北市北投區榮華里明德路190號","lat":25.112123,"lon":121.521788},
{"id":"28C2DDDD4572","area":"taipei","org":"es","name":"臺北市忠孝國小","en":"","addr":"[100]臺北市中正區梅花里忠孝東路2段101號","lat":25.042927,"lon":121.531532},
{"id":"28C2DDDD4588","area":"taipei","org":"es","name":"臺北市立大學附設實驗國小","en":"","addr":"臺北市中正區10048公園路29號","lat":25.036073,"lon":121.515246},
{"id":"28C2DDDD458E","area":"taipei","org":"es","name":"臺北市私立中山小學","en":"","addr":"[116]臺北市文山區木柵路1段292號","lat":24.988301,"lon":121.556328},
{"id":"28C2DDDD44A5","area":"taipei","org":"es","name":"臺北市新和國小","en":"","addr":"[108]臺北市萬華區西藏路125巷31號","lat":25.025983,"lon":121.503337},
{"id":"28C2DDDD45A1","area":"taipei","org":"es","name":"臺北市富安國小","en":"","addr":"[111]臺北市士林區富洲里延平北路8段135號","lat":25.105869,"lon":121.482442},
{"id":"28C2DDDD4590","area":"taipei","org":"es","name":"臺北市新生國小","en":"","addr":"[106]臺北市大安區新生南路二段36號","lat":25.029820,"lon":121.533620},
{"id":"28C2DDDD459D","area":"taipei","org":"es","name":"臺北市力行國小","en":"","addr":"[116]臺北市文山區樟腳里木新路3段155巷7號","lat":24.980969,"lon":121.561162},
{"id":"28C2DDDD4593","area":"taipei","org":"es","name":"臺北市濱江國小","en":"","addr":"[104]臺北市中山區樂群二路266巷99號","lat":25.078001,"lon":121.561637},
{"id":"28C2DDDD4594","area":"taipei","org":"es","name":"臺北市大直國小","en":"","addr":"[104]臺北市中山區大直里大直街2號","lat":25.080493,"lon":121.546097},
{"id":"28C2DDDD4575","area":"taipei","org":"es","name":"臺北市銘傳國小","en":"","addr":"[106]臺北市大安區農場里羅斯褔路四段21號","lat":25.026158,"lon":121.542709},
{"id":"28C2DDDD4591","area":"taipei","org":"es","name":"臺北市博嘉國小","en":"","addr":"[116]臺北市文山區木柵路4段159巷14號之1","lat":25.000695,"lon":121.575404},
{"id":"28C2DDDD44C4","area":"taipei","org":"es","name":"臺北市光復國小","en":"","addr":"[110]臺北市信義區光復南路271號","lat":25.040270,"lon":121.557853},
{"id":"28C2DDDD459F","area":"taipei","org":"es","name":"臺北市社子國小","en":"","addr":"[111]臺北市士林區永倫里延平北路六段308號","lat":25.089812,"lon":121.502948},
{"id":"28C2DDDD45A0","area":"taipei","org":"es","name":"臺北市義方國小","en":"","addr":"[112]臺北市北投區珠海路155號","lat":25.141969,"lon":121.509292},
{"id":"28C2DDDD4580","area":"taipei","org":"es","name":"臺北市逸仙國小","en":"","addr":"[112]臺北市北投區中心里新民路2號","lat":25.138372,"lon":121.505163},
{"id":"28C2DDDD45A5","area":"taipei","org":"es","name":"臺北市長安國小","en":"","addr":"[104]臺北市中山區興亞里吉林路15號","lat":25.049769,"lon":121.530163},
{"id":"28C2DDDD459A","area":"taipei","org":"es","name":"臺北市福林國小","en":"","addr":"[111]臺北市士林區福志里福志路75號","lat":25.098688,"lon":121.529596},
{"id":"28C2DDDD47BB","area":"taipei","org":"es","name":"臺北市萬芳國小","en":"","addr":"[116]臺北市文山區萬芳里萬和街1號","lat":25.001388,"lon":121.567612},
{"id":"28C2DDDD4785","area":"taipei","org":"es","name":"臺北市南門國小","en":"","addr":"[100]臺北市中正區南門里廣州街6號","lat":25.035266,"lon":121.509069},
{"id":"28C2DDDD4796","area":"taipei","org":"es","name":"臺北市景美國小","en":"","addr":"[116]臺北市文山區景行里景文街108號","lat":24.989527,"lon":121.540781},
{"id":"28C2DDDD4566","area":"taipei","org":"es","name":"臺北市福德國小","en":"","addr":"[110]臺北市信義區中行里褔德街253號","lat":25.038899,"lon":121.586504},
{"id":"28C2DDDD4584","area":"taipei","org":"es","name":"臺北市三玉國小","en":"","addr":"[111]臺北市士林區三玉里天母東路116號","lat":25.118013,"lon":121.537344},
{"id":"28C2DDDD4585","area":"taipei","org":"es","name":"臺北市忠義國小","en":"","addr":"[100]臺北市中正區中華路二段307巷17號","lat":25.029630,"lon":121.506346},
{"id":"28C2DDDD455C","area":"taipei","org":"es","name":"臺北市北投國小","en":"","addr":"[112]臺北市北投區長安里中央北路1段73號","lat":25.134249,"lon":121.500316},
{"id":"28C2DDDD458F","area":"taipei","org":"es","name":"臺北市吉林國小","en":"","addr":"[104]臺北市中山區中原里長春路116號","lat":25.054721,"lon":121.529630},
{"id":"28C2DDDD455E","area":"taipei","org":"es","name":"臺北市萬大國小","en":"","addr":"[108]臺北市萬華區全德里萬大路346號","lat":25.022984,"lon":121.499323},
{"id":"28C2DDDD4561","area":"taipei","org":"es","name":"臺北市明湖國小","en":"","addr":"[114]臺北市內湖區東湖里康寧路3段105號","lat":25.071323,"lon":121.610761},
{"id":"74DA388FF716","area":"new taipei","org":"es","name":"新北市板橋國小","en":"","addr":"[220]新北市板橋區黃石里文化路一段23號","lat":25.010847,"lon":121.458260},
{"id":"74DA388FF712","area":"new taipei","org":"es","name":"新北市江翠國小","en":"","addr":"[220]新北市板橋區松翠里文化路二段413號","lat":25.032324,"lon":121.474136},
{"id":"74DA388FF718","area":"new taipei","org":"es","name":"新北市沙崙國小","en":"","addr":"[220]新北市板橋區篤行路二段132號","lat":24.989746,"lon":121.430542},
{"id":"74DA388FF714","area":"new taipei","org":"es","name":"新北市中山國小","en":"","addr":"[220]新北市板橋區大觀路二段59巷31號","lat":25.002234,"lon":121.447716},
{"id":"74DA388FF71C","area":"new taipei","org":"es","name":"新北市後埔國小","en":"","addr":"[220]新北市板橋區重慶路157號","lat":25.003351,"lon":121.462669},
{"id":"74DA388FF71A","area":"new taipei","org":"es","name":"新北市埔墘國小","en":"","addr":"[220]新北市板橋區永豐街42之8號","lat":25.018147,"lon":121.474098},
{"id":"74DA388FF722","area":"new taipei","org":"es","name":"新北市新埔國小","en":"","addr":"[220]新北市板橋區新翠里陽明街206號","lat":25.025652,"lon":121.462555},
{"id":"74DA388FF724","area":"new taipei","org":"es","name":"新北市國光國小","en":"","addr":"[220]新北市板橋區中正路325巷30號","lat":25.018967,"lon":121.452927},
{"id":"74DA388FF726","area":"new taipei","org":"es","name":"新北市莒光國小","en":"","addr":"[220]新北市板橋區華翠里莒光路163號","lat":25.024136,"lon":121.473961},
{"id":"74DA388FF71E","area":"new taipei","org":"es","name":"新北市海山國小","en":"","addr":"[220]新北市板橋區漢生東路280號","lat":25.009497,"lon":121.470894},
{"id":"74DA388FF728","area":"new taipei","org":"es","name":"新北市文德國小","en":"","addr":"[220]新北市板橋區新翠里英士路179號","lat":25.023314,"lon":121.458809},
{"id":"74DA388FF72A","area":"new taipei","org":"es","name":"新北市文聖國小","en":"","addr":"[220]新北市板橋區文聖街86號","lat":25.029142,"lon":121.477463},
{"id":"74DA388FF72C","area":"new taipei","org":"es","name":"新北市實踐國小","en":"","addr":"[220]新北市板橋區實踐路93巷51號","lat":25.004980,"lon":121.466400},
{"id":"74DA388FF720","area":"new taipei","org":"es","name":"新北市溪洲國小","en":"","addr":"[220]新北市板橋區金門街289號","lat":24.987343,"lon":121.430885},
{"id":"74DA388FF72E","area":"new taipei","org":"es","name":"新北市大觀國小","en":"","addr":"[220]新北市板橋區大觀路一段30號","lat":25.008581,"lon":121.449425},
{"id":"74DA388FF734","area":"new taipei","org":"es","name":"新北市信義國小","en":"","addr":"[220]新北市板橋區四川路二段245巷60號","lat":24.991785,"lon":121.452682},
{"id":"74DA388FF736","area":"new taipei","org":"es","name":"新北市重慶國小","en":"","addr":"[220]新北市板橋區廣和街31號","lat":24.994463,"lon":121.462425},
{"id":"74DA388FF738","area":"new taipei","org":"jh","name":"新北市板橋國中","en":"","addr":"[220]新北市板橋區中正路437號","lat":25.023973,"lon":121.454208},
{"id":"74DA388FF73A","area":"new taipei","org":"jh","name":"新北市重慶國中","en":"","addr":"[220]新北市板橋區國慶路120號","lat":24.998186,"lon":121.463127},
{"id":"74DA388FF740","area":"new taipei","org":"jh","name":"新北市江翠國中","en":"","addr":"[220]新北市板橋區松江街63號","lat":25.028866,"lon":121.468460},
{"id":"74DA388FF56A","area":"new taipei","org":"jh","name":"新北市中山國中","en":"","addr":"[220]新北市板橋區文化路一段188巷56號","lat":25.018452,"lon":121.467567},
{"id":"74DA388FF56E","area":"new taipei","org":"jh","name":"新北市新埔國中","en":"","addr":"[220]新北市板橋區新海路181號","lat":25.024794,"lon":121.459747},
{"id":"74DA388FF56C","area":"new taipei","org":"jh","name":"新北市溪崑國中","en":"","addr":"[220]新北市板橋區大觀路三段50巷30號","lat":24.996773,"lon":121.431427},
{"id":"74DA388FF52C","area":"new taipei","org":"jh","name":"新北市大觀國中","en":"","addr":"[220]新北市板橋區僑中一街1號","lat":25.011127,"lon":121.448936},
{"id":"74DA388FF53E","area":"new taipei","org":"jh","name":"新北市忠孝國中","en":"","addr":"[220]新北市板橋區成都街30號","lat":25.004820,"lon":121.461594},
{"id":"74DA388FF576","area":"new taipei","org":"sh","name":"新北市光復高中","en":"","addr":"[220]新北市板橋區光環路一段7號","lat":25.016550,"lon":121.482162},
{"id":"74DA388FF572","area":"new taipei","org":"sh","name":"新北市板橋高中","en":"","addr":"[220]新北市板橋區文化路一段25號","lat":25.012266,"lon":121.458473},
{"id":"74DA388FF554","area":"new taipei","org":"sh","name":"新北市海山高中","en":"","addr":"[220]新北市板橋區漢生東路215號","lat":25.009518,"lon":121.471924},
{"id":"74DA388FF526","area":"new taipei","org":"es","name":"新北市土城國小","en":"","addr":"[236]新北市土城區興城路17號","lat":24.971210,"lon":121.442436},
{"id":"74DA388FF51E","area":"new taipei","org":"es","name":"新北市頂埔國小","en":"","addr":"[236]新北市土城區頂福里中央路四段205號","lat":24.956230,"lon":121.414406},
{"id":"74DA388FF542","area":"new taipei","org":"es","name":"新北市清水國小","en":"","addr":"[236]新北市土城區金城路二段356號","lat":24.984882,"lon":121.461426},
{"id":"74DA388FF53C","area":"new taipei","org":"es","name":"新北市廣福國小","en":"","addr":"[236]新北市土城區學府路一段127號","lat":24.986801,"lon":121.454674},
{"id":"74DA388FF548","area":"new taipei","org":"es","name":"新北市樂利國小","en":"","addr":"[236]新北市土城區裕生路65號","lat":24.986279,"lon":121.447617},
{"id":"74DA388FF518","area":"new taipei","org":"es","name":"新北市安和國小","en":"","addr":"[236]新北市土城區延和路23號","lat":24.988886,"lon":121.465019},
{"id":"74DA388FF530","area":"new taipei","org":"jh","name":"新北市土城國中","en":"","addr":"[236]新北市土城區永寧路18號","lat":24.962523,"lon":121.430191},
{"id":"74DA388FF532","area":"new taipei","org":"jh","name":"新北市中正國中","en":"","addr":"[236]新北市土城區金城路二段247號","lat":24.983521,"lon":121.456757},
{"id":"74DA388FF510","area":"new taipei","org":"sh","name":"新北市清水高中","en":"","addr":"[236]新北市土城區明德路一段72號","lat":24.982298,"lon":121.465363},
{"id":"74DA388FF512","area":"new taipei","org":"es","name":"新北市新北高工","en":"","addr":"[236]新北市土城區學府路一段241號","lat":24.984221,"lon":121.451233},
{"id":"74DA388FF50E","area":"new taipei","org":"es","name":"新北市樹林國小","en":"","addr":"[238]新北市樹林區樹西里育英街176號","lat":24.989817,"lon":121.418083},
{"id":"74DA388FF50A","area":"new taipei","org":"es","name":"新北市柑園國小","en":"","addr":"[238]新北市樹林區柑園街一段353號","lat":24.956007,"lon":121.389328},
{"id":"74DA388FF6A0","area":"new taipei","org":"es","name":"新北市山佳國小","en":"","addr":"[238]新北市樹林區中山路三段5號","lat":24.975550,"lon":121.401756},
{"id":"74DA388FF698","area":"new taipei","org":"es","name":"新北市武林國小","en":"","addr":"[238]新北市樹林區保安街二段151號","lat":25.001707,"lon":121.415466},
{"id":"74DA388FF696","area":"new taipei","org":"es","name":"新北市大同國小","en":"","addr":"[238]新北市樹林區大同里大同街43號","lat":24.982681,"lon":121.418320},
{"id":"74DA388FF6A2","area":"new taipei","org":"es","name":"新北市育德國小","en":"","addr":"[238]新北市樹林區中山里佳園路一段34號","lat":24.970873,"lon":121.392502},
{"id":"74DA388FF66A","area":"new taipei","org":"es","name":"新北市文林國小","en":"","addr":"[238]新北市樹林區潭底里千歲街59號","lat":24.997534,"lon":121.426086},
{"id":"74DA388FF66C","area":"new taipei","org":"es","name":"新北市三多國小","en":"","addr":"[238]新北市樹林區三福街52號","lat":25.016359,"lon":121.405891},
{"id":"74DA388FF6E0","area":"new taipei","org":"es","name":"新北市育林國小","en":"","addr":"[238]新北市樹林區復興路395號","lat":24.985760,"lon":121.415665},
{"id":"74DA388FF6E8","area":"new taipei","org":"es","name":"新北市彭福國小","en":"","addr":"[238]新北市樹林區忠孝街30號","lat":24.981464,"lon":121.423958},
{"id":"74DA388FF6EA","area":"new taipei","org":"jh","name":"新北市柑園國中","en":"","addr":"[238]新北市樹林區柑園街二段125號","lat":24.954706,"lon":121.384186},
{"id":"74DA388FF6EC","area":"new taipei","org":"jh","name":"新北市育林國中","en":"","addr":"[238]新北市樹林區復興路395號","lat":24.985760,"lon":121.415665},
{"id":"74DA388FF6EE","area":"new taipei","org":"jh","name":"新北市三多國中","en":"","addr":"[238]新北市樹林區三多路101號","lat":25.006371,"lon":121.414673},
{"id":"74DA388FF6F0","area":"new taipei","org":"jh","name":"新北市桃子腳國中小","en":"","addr":"[238]新北市樹林區學勤路555號","lat":24.948917,"lon":121.382896},
{"id":"74DA388FF6F2","area":"new taipei","org":"sh","name":"新北市樹林高中","en":"","addr":"[238]新北市樹林區中華路8號","lat":24.982964,"lon":121.422386},
{"id":"74DA388FF6F4","area":"new taipei","org":"es","name":"新北市鶯歌國小","en":"","addr":"[239]新北市鶯歌區同慶里尖山埔路106號","lat":24.951044,"lon":121.346169},
{"id":"74DA388FF6F8","area":"new taipei","org":"es","name":"新北市中湖國小","en":"","addr":"[239]新北市鶯歌區中湖里中湖街25號","lat":24.972834,"lon":121.347931},
{"id":"74DA388FF6FA","area":"new taipei","org":"es","name":"新北市二橋國小","en":"","addr":"[239]新北市鶯歌區二橋里中正三路106號","lat":24.940845,"lon":121.337616},
{"id":"74DA388FF6FC","area":"new taipei","org":"es","name":"新北市鳳鳴國小","en":"","addr":"[239]新北市鶯歌區鳳鳴里永和街120號","lat":24.969172,"lon":121.334824},
{"id":"74DA388FF6FE","area":"new taipei","org":"es","name":"新北市建國國小","en":"","addr":"[239]新北市鶯歌區育英街2號","lat":24.954987,"lon":121.346802},
{"id":"74DA388FF700","area":"new taipei","org":"es","name":"新北市永吉國小","en":"","addr":"[239]新北市鶯歌區德昌二街2號","lat":24.959246,"lon":121.333069},
{"id":"74DA388FF390","area":"new taipei","org":"es","name":"新北市昌福國小","en":"","addr":"[239]新北市鶯歌區永明街22號","lat":24.955872,"lon":121.339386},
{"id":"74DA388FF38C","area":"new taipei","org":"jh","name":"新北市鶯歌國中","en":"","addr":"[239]新北市鶯歌區尖山埔路108號","lat":24.950462,"lon":121.344864},
{"id":"74DA388FF3AA","area":"new taipei","org":"jh","name":"新北市尖山國中","en":"","addr":"[239]新北市鶯歌區國中街1號","lat":24.943684,"lon":121.342133},
{"id":"74DA388FF6E6","area":"new taipei","org":"jh","name":"新北市鳳鳴國中","en":"","addr":"[239]新北市鶯歌區永和街33號","lat":24.967146,"lon":121.331856},
{"id":"74DA388FF702","area":"new taipei","org":"es","name":"新北市鶯歌工商","en":"","addr":"[239]新北市鶯歌區中正三路154號","lat":24.939342,"lon":121.335060},
{"id":"74DA388FF70E","area":"new taipei","org":"es","name":"新北市三峽國小","en":"","addr":"[237]新北市三峽區中山路16號","lat":24.934851,"lon":121.369560},
{"id":"74DA388FF706","area":"new taipei","org":"es","name":"新北市成福國小","en":"","addr":"[237]新北市三峽區溪東里溪東路213號","lat":24.933094,"lon":121.405540},
{"id":"74DA388FF70C","area":"new taipei","org":"es","name":"新北市大埔國小","en":"","addr":"[237]新北市三峽區大埔路130號","lat":24.905643,"lon":121.366478},
{"id":"74DA388FF70A","area":"new taipei","org":"es","name":"新北市插角國小","en":"","addr":"[237]新北市三峽區插角里插角路39號","lat":24.877590,"lon":121.415848},
{"id":"74DA388FF708","area":"new taipei","org":"es","name":"新北市大成國小","en":"","addr":"[237]新北市三峽區成福路215巷2號","lat":24.928944,"lon":121.418137},
{"id":"74DA388FF6E4","area":"new taipei","org":"es","name":"新北市五寮國小","en":"","addr":"[237]新北市三峽區五寮里69號","lat":24.858953,"lon":121.359779},
{"id":"74DA388FF704","area":"new taipei","org":"es","name":"新北市建安國小","en":"","addr":"[237]新北市三峽區安坑里建安路67號","lat":24.927036,"lon":121.446899},
{"id":"74DA388FF710","area":"new taipei","org":"es","name":"新北市有木國小","en":"","addr":"[237]新北市三峽區有木里131號","lat":24.849857,"lon":121.457047},
{"id":"74DA388FF5F8","area":"new taipei","org":"es","name":"新北市民義國小","en":"","addr":"[237]新北市三峽區嘉添里白雞路40號","lat":24.912123,"lon":121.375610},
{"id":"74DA388FF5FA","area":"new taipei","org":"es","name":"新北市安溪國小","en":"","addr":"[237]新北市三峽區中華路42號","lat":24.931084,"lon":121.372482},
{"id":"74DA388FF5FC","area":"new taipei","org":"es","name":"新北市介壽國小","en":"","addr":"[237]新北市三峽區大同路1號","lat":24.929926,"lon":121.378525},
{"id":"74DA388FF628","area":"new taipei","org":"es","name":"新北市中園國小","en":"","addr":"[237]新北市三峽區大同路222巷22弄2號","lat":24.927828,"lon":121.367180},
{"id":"74DA388FF602","area":"new taipei","org":"es","name":"新北市龍埔國小","en":"","addr":"[237]新北市三峽區大同路222巷22弄2號","lat":24.927828,"lon":121.367180},
{"id":"74DA388FF5FE","area":"new taipei","org":"es","name":"新北市北大國小","en":"","addr":"[237]新北市三峽區復興路238號","lat":24.939053,"lon":121.369125},
{"id":"74DA388FF62C","area":"new taipei","org":"jh","name":"新北市三峽國中","en":"","addr":"[237]新北市三峽區復興路238號","lat":24.939053,"lon":121.369125},
{"id":"74DA388FF630","area":"new taipei","org":"jh","name":"新北市安溪國中","en":"","addr":"[237]新北市三峽區大同路135號","lat":24.926641,"lon":121.372818},
{"id":"74DA388FF634","area":"new taipei","org":"sh","name":"新北市明德高中","en":"","addr":"[237]新北市三峽區中正路二段399號","lat":24.906851,"lon":121.363922},
{"id":"74DA388FF63A","area":"new taipei","org":"es","name":"新北市中和國小","en":"","addr":"[235]新北市中和區中和路100號","lat":24.999706,"lon":121.501610},
{"id":"74DA388FF63E","area":"new taipei","org":"es","name":"新北市積穗國小","en":"","addr":"[235]新北市中和區員山路154號","lat":24.999161,"lon":121.481461},
{"id":"74DA388FF640","area":"new taipei","org":"es","name":"新北市興南國小","en":"","addr":"[235]新北市中和區興南路一段135巷24號","lat":24.987036,"lon":121.509666},
{"id":"74DA388FF64E","area":"new taipei","org":"es","name":"新北市秀山國小","en":"","addr":"[235]新北市中和區立人街2號","lat":24.994242,"lon":121.520859},
{"id":"74DA388FF64C","area":"new taipei","org":"es","name":"新北市復興國小","en":"","addr":"[235]新北市中和區復興路301巷6號","lat":24.989683,"lon":121.501884},
{"id":"74DA388FF642","area":"new taipei","org":"es","name":"新北市自強國小","en":"","addr":"[235]新北市中和區莒光路200號","lat":24.998354,"lon":121.471825},
{"id":"74DA388FF644","area":"new taipei","org":"es","name":"新北市景新國小","en":"","addr":"[235]新北市中和區景新街467巷37號","lat":24.989218,"lon":121.514954},
{"id":"74DA388FF64A","area":"new taipei","org":"es","name":"新北市錦和國小","en":"","addr":"[235]新北市中和區圓通路292號","lat":24.989288,"lon":121.489662},
{"id":"74DA388FF646","area":"new taipei","org":"es","name":"新北市光復國小","en":"","addr":"[235]新北市中和區光環路二段1號","lat":25.013968,"lon":121.485184},
{"id":"74DA388FF650","area":"new taipei","org":"jh","name":"新北市中和國中","en":"","addr":"[235]新北市中和區興南路二段3巷17號","lat":24.986244,"lon":121.508636},
{"id":"74DA388FF652","area":"new taipei","org":"jh","name":"新北市積穗國中","en":"","addr":"[235]新北市中和區民安街66號","lat":25.000313,"lon":121.479698},
{"id":"74DA388FF654","area":"new taipei","org":"jh","name":"新北市漳和國中","en":"","addr":"[235]新北市中和區廣福路39號","lat":25.002636,"lon":121.505486},
{"id":"74DA388FF658","area":"new taipei","org":"jh","name":"新北市自強國中","en":"","addr":"[235]新北市中和區莒光路191號","lat":24.998804,"lon":121.472633},
{"id":"74DA388FF660","area":"new taipei","org":"sh","name":"新北市中和高中","en":"","addr":"[235]新北市中和區連城路460號","lat":24.993999,"lon":121.478401},
{"id":"74DA388FF662","area":"new taipei","org":"sh","name":"新北市錦和高中","en":"","addr":"[235]新北市中和區錦和路163號","lat":24.992544,"lon":121.491081},
{"id":"74DA388FF664","area":"new taipei","org":"es","name":"新北市永和國小","en":"","addr":"[234]新北市永和區秀朗路一段120號","lat":25.003531,"lon":121.517097},
{"id":"74DA388FF666","area":"new taipei","org":"es","name":"新北市頂溪國小","en":"","addr":"[234]新北市永和區文化路133號","lat":25.015533,"lon":121.511604},
{"id":"74DA388FF648","area":"new taipei","org":"es","name":"新北市網溪國小","en":"","addr":"[234]新北市永和區竹林路79號","lat":25.012938,"lon":121.519363},
{"id":"74DA388FF668","area":"new taipei","org":"es","name":"新北市秀朗國小","en":"","addr":"[234]新北市永和區得和路200號","lat":24.999716,"lon":121.521385},
{"id":"74DA388FF5CE","area":"new taipei","org":"es","name":"新北市永平國小","en":"","addr":"[234]新北市永和區保生路25號","lat":25.007877,"lon":121.505753},
{"id":"74DA388FF66E","area":"new taipei","org":"jh","name":"新北市永和國中","en":"","addr":"[234]新北市永和區國中路111號","lat":25.006701,"lon":121.523346},
{"id":"74DA388FF5AA","area":"new taipei","org":"jh","name":"新北市福和國中","en":"","addr":"[234]新北市永和區永利路71號","lat":25.004025,"lon":121.520859},
{"id":"74DA388FF5AE","area":"new taipei","org":"sh","name":"新北市永平高中","en":"","addr":"[234]新北市永和區永平路205號","lat":25.010700,"lon":121.508705},
{"id":"74DA388FF588","area":"new taipei","org":"es","name":"新北市汐止國小","en":"","addr":"[221]新北市汐止區大同路二段313號","lat":25.066689,"lon":121.654877},
{"id":"74DA388FF57C","area":"new taipei","org":"es","name":"新北市北港國小","en":"","addr":"[221]新北市汐止區汐萬路二段279號","lat":25.089403,"lon":121.645592},
{"id":"74DA388FF582","area":"new taipei","org":"es","name":"新北市東山國小","en":"","addr":"[221]新北市汐止區東山里汐平路二段76號","lat":25.059635,"lon":121.700310},
{"id":"74DA388FF58C","area":"new taipei","org":"es","name":"新北市北峰國小","en":"","addr":"[221]新北市汐止區中興里環河街1號","lat":25.058956,"lon":121.629105},
{"id":"74DA388FF594","area":"new taipei","org":"es","name":"新北市白雲國小","en":"","addr":"[221]新北市汐止區福山里民權街二段90號","lat":25.047642,"lon":121.618881},
{"id":"74DA388FF5F2","area":"new taipei","org":"es","name":"新北市長安國小","en":"","addr":"[221]新北市汐止區長興街一段80號","lat":25.079315,"lon":121.670792},
{"id":"74DA388FF5EE","area":"new taipei","org":"es","name":"新北市保長國小","en":"","addr":"[221]新北市汐止區大同路三段553號","lat":25.071774,"lon":121.680855},
{"id":"74DA388FF590","area":"new taipei","org":"es","name":"新北市崇德國小","en":"","addr":"[221]新北市汐止區茄苳里茄苳路158號","lat":25.069578,"lon":121.669189},
{"id":"74DA388FF600","area":"new taipei","org":"es","name":"新北市樟樹國小","en":"","addr":"[221]新北市汐止區樟樹一路141巷2號","lat":25.066498,"lon":121.641769},
{"id":"74DA388FF604","area":"new taipei","org":"es","name":"新北市秀峰國小","en":"","addr":"[221]新北市汐止區仁愛路90號","lat":25.062874,"lon":121.661377},
{"id":"74DA388FF606","area":"new taipei","org":"es","name":"新北市金龍國小","en":"","addr":"[221]新北市汐止區明峰街201號","lat":25.068806,"lon":121.627045},
{"id":"74DA388FF60A","area":"new taipei","org":"jh","name":"新北市汐止國中","en":"","addr":"[221]新北市汐止區禮門里大同路二段394號","lat":25.066957,"lon":121.658340},
{"id":"74DA388FF60C","area":"new taipei","org":"jh","name":"新北市青山國中小","en":"","addr":"[221]新北市汐止區莊敬街33號","lat":25.061157,"lon":121.656654},
{"id":"74DA388FF60E","area":"new taipei","org":"jh","name":"新北市樟樹國中","en":"","addr":"[221]新北市汐止區樟樹二路135號","lat":25.065941,"lon":121.639893},
{"id":"74DA388FF614","area":"new taipei","org":"sh","name":"新北市秀峰高中","en":"","addr":"[221]新北市汐止區忠孝東路201號","lat":25.066456,"lon":121.661911},
{"id":"74DA388FF612","area":"new taipei","org":"es","name":"新北市萬里國小","en":"","addr":"[207]新北市萬里區瑪鋉路18號","lat":25.177528,"lon":121.689339},
{"id":"74DA388FF592","area":"new taipei","org":"es","name":"新北市大坪國小","en":"","addr":"[207]新北市萬里區雙興里大坪路1號","lat":25.168398,"lon":121.635658},
{"id":"74DA388FF596","area":"new taipei","org":"es","name":"新北市大鵬國小","en":"","addr":"[207]新北市萬里區大鵬里加投路14號","lat":25.212843,"lon":121.645958},
{"id":"74DA388FF59A","area":"new taipei","org":"es","name":"新北市崁腳國小","en":"","addr":"[207]新北市萬里區崁_里崁_路59號","lat":25.159702,"lon":121.648643},
{"id":"74DA388FF5A2","area":"new taipei","org":"es","name":"新北市野柳國小","en":"","addr":"[207]新北市萬里區野柳里港東路167號","lat":25.204111,"lon":121.687805},
{"id":"74DA388FF5D4","area":"new taipei","org":"jh","name":"新北市萬里國中","en":"","addr":"[207]新北市萬里區獅頭路24號","lat":25.174244,"lon":121.687172},
{"id":"74DA388FF5D8","area":"new taipei","org":"es","name":"新北市金美國小","en":"","addr":"[208]新北市金山區忠孝一路111號","lat":25.221373,"lon":121.635635},
{"id":"74DA388FF5DE","area":"new taipei","org":"es","name":"新北市三和國小","en":"","addr":"[208]新北市金山區重和里六股林口38號","lat":25.236609,"lon":121.616898},
{"id":"74DA388FF5E4","area":"new taipei","org":"es","name":"新北市中角國小","en":"","addr":"[208]新北市金山區萬壽里海興路49號","lat":25.239632,"lon":121.632362},
{"id":"74DA388FF5E8","area":"new taipei","org":"es","name":"新北市金山國小","en":"","addr":"[208]新北市金山區美田里金包里街180號","lat":25.223223,"lon":121.636780},
{"id":"74DA388FF5EC","area":"new taipei","org":"sh","name":"新北市金山高中","en":"","addr":"[208]新北市金山區美田里文化二路2號","lat":25.225374,"lon":121.636162},
{"id":"74DA388FF5B8","area":"new taipei","org":"es","name":"新北市新店國小","en":"","addr":"[231]新北市新店區國校里國校路67號","lat":24.953062,"lon":121.538712},
{"id":"74DA388FF5B2","area":"new taipei","org":"es","name":"新北市大豐國小","en":"","addr":"[231]新北市新店區民族路108號","lat":24.977509,"lon":121.538208},
{"id":"74DA388FF5F0","area":"new taipei","org":"es","name":"新北市安坑國小","en":"","addr":"[231]新北市新店區安忠路36號","lat":24.961378,"lon":121.514076},
{"id":"74DA388FF5C0","area":"new taipei","org":"es","name":"新北市屈尺國小","en":"","addr":"[231]新北市新店區屈尺路55號","lat":24.922564,"lon":121.546471},
{"id":"74DA388FF5B6","area":"new taipei","org":"es","name":"新北市雙峰國小","en":"","addr":"[231]新北市新店區北宜路三段66號","lat":24.951361,"lon":121.575409},
{"id":"74DA388FF5C8","area":"new taipei","org":"es","name":"新北市青潭國小","en":"","addr":"[231]新北市新店區北宜路二段82巷2號","lat":24.954300,"lon":121.562523},
{"id":"74DA388FF5CC","area":"new taipei","org":"es","name":"新北市龜山國小","en":"","addr":"[231]新北市新店區新烏路三段99巷10號","lat":24.902393,"lon":121.553177},
{"id":"74DA388FF59E","area":"new taipei","org":"es","name":"新北市直潭國小","en":"","addr":"[231]新北市新店區直潭路92號","lat":24.937809,"lon":121.531776},
{"id":"74DA388FF5A4","area":"new taipei","org":"es","name":"新北市雙城國小","en":"","addr":"[231]新北市新店區安康路三段322號","lat":24.951862,"lon":121.486366},
{"id":"74DA388FF598","area":"new taipei","org":"es","name":"新北市中正國小","en":"","addr":"[231]新北市新店區三民路36號","lat":24.971813,"lon":121.536667},
{"id":"74DA388FF74E","area":"new taipei","org":"es","name":"新北市北新國小","en":"","addr":"[231]新北市新店區寶橋路8號","lat":24.974298,"lon":121.544724},
{"id":"74DA388FF74C","area":"new taipei","org":"es","name":"新北市新和國小","en":"","addr":"[231]新北市新店區安和路三段100號","lat":24.984596,"lon":121.518166},
{"id":"74DA388FF74A","area":"new taipei","org":"jh","name":"新北市文山國中","en":"","addr":"[231]新北市新店區文中路38號","lat":24.956705,"lon":121.538933},
{"id":"74DA388FF394","area":"new taipei","org":"jh","name":"新北市五峰國中","en":"","addr":"[231]新北市新店區中興路一段253號","lat":24.966722,"lon":121.544159},
{"id":"74DA388FF380","area":"new taipei","org":"jh","name":"新北市達觀國中小","en":"","addr":"[231]新北市新店區僑信路1號","lat":24.953621,"lon":121.499977},
{"id":"74DA388FF3B0","area":"new taipei","org":"sh","name":"新北市新店高中","en":"","addr":"[231]新北市新店區中央路93號","lat":24.975559,"lon":121.531761},
{"id":"74DA388FF39A","area":"new taipei","org":"sh","name":"新北市安康高中","en":"","addr":"[231]新北市新店區安興路25號","lat":24.969873,"lon":121.515289},
{"id":"74DA388FF382","area":"new taipei","org":"es","name":"新北市深坑國小","en":"","addr":"[222]新北市深坑區深坑里文化街45號","lat":25.001875,"lon":121.616905},
{"id":"74DA388FF386","area":"new taipei","org":"jh","name":"新北市深坑國中","en":"","addr":"[222]新北市深坑區文化街41號","lat":25.001842,"lon":121.616356},
{"id":"74DA388FF38A","area":"new taipei","org":"es","name":"新北市石碇國小","en":"","addr":"[223]新北市石碇區石碇里石碇西街15號","lat":24.990833,"lon":121.658943},
{"id":"74DA388FF398","area":"new taipei","org":"es","name":"新北市雲海國小","en":"","addr":"[223]新北市石碇區北宜路五段坑內巷1號","lat":24.953585,"lon":121.635757},
{"id":"74DA388FF384","area":"new taipei","org":"es","name":"新北市永定國小","en":"","addr":"[223]新北市石碇區永定里蚯蚓坑20號","lat":25.008316,"lon":121.683868},
{"id":"74DA388FF37E","area":"new taipei","org":"es","name":"新北市和平國小","en":"","addr":"[223]新北市石碇區隆盛里八分寮5號","lat":25.011122,"lon":121.647072},
{"id":"74DA388FF3A2","area":"new taipei","org":"sh","name":"新北市石碇高中","en":"","addr":"[223]新北市石碇區隆盛里八分寮45號","lat":25.011909,"lon":121.642227},
{"id":"74DA388FF388","area":"new taipei","org":"es","name":"新北市坪林國小","en":"","addr":"[232]新北市坪林區坪林里坪林街114號","lat":24.935562,"lon":121.711456},
{"id":"74DA388FF37C","area":"new taipei","org":"jh","name":"新北市坪林國中","en":"","addr":"[232]新北市坪林區國中路4號","lat":24.940636,"lon":121.713036},
{"id":"74DA388FF396","area":"new taipei","org":"es","name":"新北市福山國小","en":"","addr":"[233]新北市烏來區福山里李茂岸56號","lat":24.762205,"lon":121.514160},
{"id":"74DA388FF39E","area":"new taipei","org":"jh","name":"新北市烏來國中小","en":"","addr":"[233]新北市烏來區啦卡路5號","lat":24.863771,"lon":121.553146},
{"id":"74DA388FF392","area":"new taipei","org":"es","name":"新北市瑞芳國小","en":"","addr":"[224]新北市瑞芳區龍川里中山路2號","lat":25.107815,"lon":121.804726},
{"id":"74DA388FF3A0","area":"new taipei","org":"es","name":"新北市九份國小","en":"","addr":"[224]新北市瑞芳區永慶里崙頂路145號","lat":25.107208,"lon":121.843597},
{"id":"74DA388FF608","area":"new taipei","org":"es","name":"新北市瑞亭國小","en":"","addr":"[224]新北市瑞芳區四腳亭埔路23號","lat":25.102571,"lon":121.777824},
{"id":"74DA388FF616","area":"new taipei","org":"es","name":"新北市瓜山國小","en":"","addr":"[224]新北市瑞芳區石山里五號路306號","lat":25.111280,"lon":121.856895},
{"id":"74DA388FF61A","area":"new taipei","org":"es","name":"新北市鼻頭國小","en":"","addr":"[224]新北市瑞芳區鼻頭里鼻頭路99號","lat":25.120922,"lon":121.919090},
{"id":"74DA388FF610","area":"new taipei","org":"es","name":"新北市猴硐國小","en":"","addr":"[224]新北市瑞芳區弓橋里九芎橋路69-1號","lat":25.092136,"lon":121.833763},
{"id":"74DA388FF620","area":"new taipei","org":"es","name":"新北市濂洞國小","en":"","addr":"[224]新北市瑞芳區_洞里洞頂路101巷80號","lat":25.121881,"lon":121.860550},
{"id":"74DA388FF622","area":"new taipei","org":"es","name":"新北市吉慶國小","en":"","addr":"[224]新北市瑞芳區吉安里大埔路95號","lat":25.099850,"lon":121.763100},
{"id":"74DA388FF624","area":"new taipei","org":"es","name":"新北市瑞濱國小","en":"","addr":"[224]新北市瑞芳區瑞濱路34號","lat":25.120495,"lon":121.820320},
{"id":"74DA388FF62A","area":"new taipei","org":"es","name":"新北市瑞柑國小","en":"","addr":"[224]新北市瑞芳區明燈路一段18巷13號","lat":25.109188,"lon":121.822708},
{"id":"74DA388FF61C","area":"new taipei","org":"es","name":"新北市義方國小","en":"","addr":"[224]新北市瑞芳區龍山里逢甲路360號","lat":25.112989,"lon":121.802368},
{"id":"74DA388FF618","area":"new taipei","org":"jh","name":"新北市瑞芳國中","en":"","addr":"[224]新北市瑞芳區三爪子坑路1號","lat":25.106190,"lon":121.812859},
{"id":"74DA388FF63C","area":"new taipei","org":"jh","name":"新北市欽賢國中","en":"","addr":"[224]新北市瑞芳區崙頂路3之1號","lat":25.105125,"lon":121.845680},
{"id":"74DA388FF638","area":"new taipei","org":"es","name":"新北市瑞芳高工","en":"","addr":"[224]新北市瑞芳區瑞芳街60號","lat":25.110821,"lon":121.804741},
{"id":"74DA388FF570","area":"new taipei","org":"es","name":"新北市雙溪國小","en":"","addr":"[227]新北市雙溪區共和里東榮街54號","lat":25.033813,"lon":121.865929},
{"id":"74DA388FF636","area":"new taipei","org":"es","name":"新北市柑林國小","en":"","addr":"[227]新北市雙溪區長源里柑腳3號","lat":25.018288,"lon":121.802574},
{"id":"74DA388FF574","area":"new taipei","org":"es","name":"新北市牡丹國小","en":"","addr":"[227]新北市雙溪區三貂里政光路3號","lat":25.061932,"lon":121.839180},
{"id":"74DA388FF568","area":"new taipei","org":"es","name":"新北市上林國小","en":"","addr":"[227]新北市雙溪區上林里內平林60號","lat":25.030392,"lon":121.834290},
{"id":"74DA388FF62E","area":"new taipei","org":"sh","name":"新北市雙溪高中","en":"","addr":"[227]新北市雙溪區梅竹蹊3號","lat":25.035975,"lon":121.861710},
{"id":"74DA388FF61E","area":"new taipei","org":"es","name":"新北市貢寮國小","en":"","addr":"[228]新北市貢寮區雙玉里學苑街7號","lat":25.023148,"lon":121.917610},
{"id":"74DA388FF632","area":"new taipei","org":"es","name":"新北市澳底國小","en":"","addr":"[228]新北市貢寮區真理里延平街10號","lat":25.054892,"lon":121.924370},
{"id":"74DA388FF626","area":"new taipei","org":"es","name":"新北市和美國小","en":"","addr":"[228]新北市貢寮區和美里龍洞街1之9號","lat":25.111660,"lon":121.915497},
{"id":"74DA388FF5E6","area":"new taipei","org":"es","name":"新北市福連國小","en":"","addr":"[228]新北市貢寮區福連里福連街1號","lat":25.015144,"lon":121.989220},
{"id":"74DA388FF5E2","area":"new taipei","org":"es","name":"新北市福隆國小","en":"","addr":"[228]新北市貢寮區福隆里東興街35號","lat":25.018047,"lon":121.949463},
{"id":"74DA388FF5CA","area":"new taipei","org":"jh","name":"新北市貢寮國中","en":"","addr":"[228]新北市貢寮區嵩陽街42號","lat":25.015455,"lon":121.906097},
{"id":"74DA388FF5EA","area":"new taipei","org":"jh","name":"新北市豐珠國中小","en":"","addr":"[228]新北市貢寮區美豐里雞母嶺街6-6號","lat":25.059906,"lon":121.895164},
{"id":"74DA388FF5C6","area":"new taipei","org":"es","name":"新北市十分國小","en":"","addr":"[226]新北市平溪區十分里十分街157號","lat":25.042709,"lon":121.777351},
{"id":"74DA388FF5D0","area":"new taipei","org":"es","name":"新北市平溪國小","en":"","addr":"[226]新北市平溪區平溪街56號","lat":25.027262,"lon":121.738075},
{"id":"74DA388FF5D2","area":"new taipei","org":"es","name":"新北市菁桐國小","en":"","addr":"[226]新北市平溪區菁桐街45號","lat":25.023857,"lon":121.725754},
{"id":"74DA388FF5C2","area":"new taipei","org":"jh","name":"新北市平溪國中","en":"","addr":"[226]新北市平溪區石底街92號","lat":25.024733,"lon":121.738747},
{"id":"74DA388FF5BE","area":"new taipei","org":"es","name":"新北市淡水國小","en":"","addr":"[251]新北市淡水區協元里中山路160號","lat":25.173525,"lon":121.441147},
{"id":"74DA388FF5BA","area":"new taipei","org":"es","name":"新北市興仁國小","en":"","addr":"[251]新北市淡水區興仁路101巷10號","lat":25.217499,"lon":121.451279},
{"id":"74DA388FF5A8","area":"new taipei","org":"es","name":"新北市水源國小","en":"","addr":"[251]新北市淡水區水源里北新路二段15號","lat":25.185839,"lon":121.476555},
{"id":"74DA388FF5AC","area":"new taipei","org":"es","name":"新北市文化國小","en":"","addr":"[251]新北市淡水區文化里真理街6號","lat":25.173243,"lon":121.437874},
{"id":"74DA388FF59C","area":"new taipei","org":"es","name":"新北市坪頂國小","en":"","addr":"[251]新北市淡水區坪頂里小坪頂18號","lat":25.157848,"lon":121.483414},
{"id":"74DA388FF5A0","area":"new taipei","org":"es","name":"新北市竹圍國小","en":"","addr":"[251]新北市淡水區中正東路二段145號","lat":25.147560,"lon":121.460037},
{"id":"74DA388FF5B0","area":"new taipei","org":"es","name":"新北市屯山國小","en":"","addr":"[251]新北市淡水區淡金路五段111號","lat":25.237309,"lon":121.456284},
{"id":"74DA388FF5B4","area":"new taipei","org":"es","name":"新北市育英國小","en":"","addr":"[251]新北市淡水區埤島里14號","lat":25.197063,"lon":121.444855},
{"id":"74DA388FF5A6","area":"new taipei","org":"es","name":"新北市天生國小","en":"","addr":"[251]新北市淡水區淡海路72巷26號","lat":25.181505,"lon":121.424599},
{"id":"74DA388FF556","area":"new taipei","org":"es","name":"新北市中泰國小","en":"","addr":"[251]新北市淡水區中和里北勢子5號","lat":25.224051,"lon":121.484474},
{"id":"74DA388FF540","area":"new taipei","org":"es","name":"新北市忠山國小","en":"","addr":"[251]新北市淡水區忠山里椿子林16之8號","lat":25.205063,"lon":121.465294},
{"id":"74DA388FF55A","area":"new taipei","org":"es","name":"新北市鄧公國小","en":"","addr":"[251]新北市淡水區學府里學府路99號","lat":25.171444,"lon":121.449463},
{"id":"74DA388FF6C8","area":"new taipei","org":"es","name":"新北市新興國小","en":"","addr":"[251]新北市淡水區新興街123號","lat":25.179724,"lon":121.440048},
{"id":"74DA388FF6C2","area":"new taipei","org":"es","name":"新北市新市國小","en":"","addr":" 251新北市淡水區中山北路二段200號","lat":25.185345,"lon":121.444267},
{"id":"74DA388FF6BE","area":"new taipei","org":"jh","name":"新北市淡水國中","en":"","addr":"[251]新北市淡水區文化里真理街10號","lat":25.174709,"lon":121.436531},
{"id":"74DA388FF6B6","area":"new taipei","org":"jh","name":"新北市正德國中","en":"","addr":"[251]新北市淡水區北新路109號","lat":25.178499,"lon":121.446915},
{"id":"74DA388FF6B2","area":"new taipei","org":"sh","name":"新北市竹圍高中","en":"","addr":"[251]新北市淡水區竹林路 35 號","lat":25.145838,"lon":121.461647},
{"id":"74DA388FF6B0","area":"new taipei","org":"es","name":"新北市淡水商工","en":"","addr":"[251]新北市淡水區商工路307號","lat":25.186792,"lon":121.454132},
{"id":"74DA388FF6B4","area":"new taipei","org":"es","name":"新北市老梅國小","en":"","addr":"[253]新北市石門區老梅里老梅路10號","lat":25.289711,"lon":121.544441},
{"id":"74DA388FF6AE","area":"new taipei","org":"es","name":"新北市石門國小","en":"","addr":"[253]新北市石門區尖鹿里中央路9號","lat":25.293318,"lon":121.567986},
{"id":"74DA388FF6B8","area":"new taipei","org":"es","name":"新北市乾華國小","en":"","addr":"[253]新北市石門區茂林里茂林社區74號","lat":25.269510,"lon":121.595505},
{"id":"74DA388FF6AC","area":"new taipei","org":"jh","name":"新北市石門國中","en":"","addr":"[253]新北市石門區中央路1之9號","lat":25.291407,"lon":121.565735},
{"id":"74DA388FF6A4","area":"new taipei","org":"es","name":"新北市三芝國小","en":"","addr":"[252]新北市三芝區埔頭里育英街22號","lat":25.258104,"lon":121.501381},
{"id":"74DA388FF6AA","area":"new taipei","org":"es","name":"新北市興華國小","en":"","addr":"[252]新北市三芝區興華里5號","lat":25.195503,"lon":121.494141},
{"id":"74DA388FF6A8","area":"new taipei","org":"es","name":"新北市橫山國小","en":"","addr":"[252]新北市三芝區橫山里86號","lat":25.253578,"lon":121.534149},
{"id":"74DA388FF678","area":"new taipei","org":"jh","name":"新北市三芝國中","en":"","addr":"[252]新北市三芝區淡金路一段38號","lat":25.259272,"lon":121.500313},
{"id":"74DA388FF676","area":"new taipei","org":"es","name":"新北市二重國小","en":"","addr":"[241]新北市三重區二重里大有街10號","lat":25.065750,"lon":121.477676},
{"id":"74DA388FF674","area":"new taipei","org":"es","name":"新北市三重國小","en":"","addr":"[241]新北市三重區三和路三段1號","lat":25.069990,"lon":121.498177},
{"id":"74DA388FF6BA","area":"new taipei","org":"es","name":"新北市三光國小","en":"","addr":"[241]新北市三重區同安里大同南路157號","lat":25.056351,"lon":121.496643},
{"id":"74DA388FF672","area":"new taipei","org":"es","name":"新北市正義國小","en":"","addr":"[241]新北市三重區信義西街31號","lat":25.064554,"lon":121.496155},
{"id":"74DA388FF6BC","area":"new taipei","org":"es","name":"新北市厚德國小","en":"","addr":"[241]新北市三重區忠孝路一段70號","lat":25.071859,"lon":121.488594},
{"id":"74DA388FF6DE","area":"new taipei","org":"es","name":"新北市修德國小","en":"","addr":"[241]新北市三重區重陽路三段3號","lat":25.065790,"lon":121.489830},
{"id":"74DA388FF3F4","area":"new taipei","org":"es","name":"新北市興穀國小","en":"","addr":"[241]新北市三重區五谷王北街46號","lat":25.050070,"lon":121.475662},
{"id":"74DA388FF5F6","area":"new taipei","org":"es","name":"新北市光興國小","en":"","addr":"[241]新北市三重區正義南路62號","lat":25.059057,"lon":121.498787},
{"id":"74DA388FF5F4","area":"new taipei","org":"es","name":"新北市碧華國小","en":"","addr":"[241]新北市三重區五華街160號","lat":25.085081,"lon":121.490028},
{"id":"74DA388FF686","area":"new taipei","org":"es","name":"新北市光榮國小","en":"","addr":"[241]新北市三重區介壽路32號","lat":25.070847,"lon":121.501350},
{"id":"74DA388FF684","area":"new taipei","org":"es","name":"新北市永福國小","en":"","addr":"[241]新北市三重區永福里永福街66號","lat":25.077044,"lon":121.480637},
{"id":"74DA388FF682","area":"new taipei","org":"es","name":"新北市五華國小","en":"","addr":"[241]新北市三重區五華街141巷60號","lat":25.086639,"lon":121.493309},
{"id":"74DA388FF680","area":"new taipei","org":"es","name":"新北市重陽國小","en":"","addr":"[241]新北市三重區中正北路113號","lat":25.066668,"lon":121.483910},
{"id":"74DA388FF67C","area":"new taipei","org":"es","name":"新北市集美國小","en":"","addr":"[241]新北市三重區集美街10號","lat":25.056471,"lon":121.487991},
{"id":"74DA388FF67A","area":"new taipei","org":"jh","name":"新北市明志國中","en":"","addr":"[241]新北市三重區中正北路107號","lat":25.063478,"lon":121.489021},
{"id":"74DA388FF694","area":"new taipei","org":"jh","name":"新北市光榮國中","en":"","addr":"[241]新北市三重區介壽路26號","lat":25.070454,"lon":121.499916},
{"id":"74DA388FF690","area":"new taipei","org":"jh","name":"新北市碧華國中","en":"","addr":"[241]新北市三重區自強路五段66號","lat":25.082306,"lon":121.495163},
{"id":"74DA388FF68E","area":"new taipei","org":"jh","name":"新北市三和國中","en":"","addr":"[241]新北市三重區三和路四段216號","lat":25.076380,"lon":121.486824},
{"id":"74DA388FF68C","area":"new taipei","org":"jh","name":"新北市二重國中","en":"","addr":"[241]新北市三重區忠孝路三段89號","lat":25.065697,"lon":121.480331},
{"id":"74DA388FF68A","area":"new taipei","org":"sh","name":"新北市三重高中","en":"","addr":"[241]新北市三重區三信路1號","lat":25.087332,"lon":121.489685},
{"id":"74DA388FF688","area":"new taipei","org":"sh","name":"新北市新北高中","en":"","addr":"[241]新北市三重區三信路1號","lat":25.087332,"lon":121.489685},
{"id":"74DA388FF692","area":"new taipei","org":"es","name":"新北市三重商工","en":"","addr":"[241]新北市三重區中正北路163號","lat":25.069017,"lon":121.480217},
{"id":"74DA388FF67E","area":"new taipei","org":"es","name":"新北市蘆洲國小","en":"","addr":"[247]新北市蘆洲區中正路100號","lat":25.084127,"lon":121.469948},
{"id":"74DA388FF69C","area":"new taipei","org":"es","name":"新北市鷺江國小","en":"","addr":"[247]新北市蘆洲區民族路7號","lat":25.084280,"lon":121.476173},
{"id":"74DA388FF69A","area":"new taipei","org":"es","name":"新北市成功國小","en":"","addr":"[247]新北市蘆洲區長安街311號","lat":25.085955,"lon":121.457497},
{"id":"74DA388FF69E","area":"new taipei","org":"es","name":"新北市仁愛國小","en":"","addr":"[247]新北市蘆洲區民族路488號","lat":25.091225,"lon":121.470528},
{"id":"74DA388FF488","area":"new taipei","org":"es","name":"新北市忠義國小","en":"","addr":"[247]新北市蘆洲區光榮路99號","lat":25.089211,"lon":121.463905},
{"id":"74DA388FF486","area":"new taipei","org":"jh","name":"新北市蘆洲國中","en":"","addr":"[247]新北市蘆洲區中正路265號","lat":25.087509,"lon":121.467117},
{"id":"74DA388FF47A","area":"new taipei","org":"jh","name":"新北市鷺江國中","en":"","addr":"[247]新北市蘆洲區長樂路235號","lat":25.090250,"lon":121.462036},
{"id":"74DA388FF484","area":"new taipei","org":"sh","name":"新北市三民高中","en":"","addr":"[247]新北市蘆洲區三民路96號","lat":25.085905,"lon":121.473167},
{"id":"74DA388FF47C","area":"new taipei","org":"es","name":"新北市新莊國小","en":"","addr":"[242]新北市新莊區立人里中正路86號","lat":25.039103,"lon":121.460846},
{"id":"74DA388FF480","area":"new taipei","org":"es","name":"新北市國泰國小","en":"","addr":"[242]新北市新莊區中正路386號","lat":25.034218,"lon":121.441704},
{"id":"74DA388FF4A0","area":"new taipei","org":"es","name":"新北市民安國小","en":"","addr":"[242]新北市新莊區民安里民安路261號","lat":25.021801,"lon":121.427917},
{"id":"74DA388FF750","area":"new taipei","org":"es","name":"新北市頭前國小","en":"","addr":"[242]新北市新莊區頭前里化成路231號","lat":25.052826,"lon":121.466133},
{"id":"74DA388FF4E4","area":"new taipei","org":"es","name":"新北市中港國小","en":"","addr":"[242]新北市新莊區立志里中港一街142號","lat":25.045313,"lon":121.449265},
{"id":"74DA388FF50C","area":"new taipei","org":"es","name":"新北市思賢國小","en":"","addr":"[242]新北市新莊區自立街229號","lat":25.045612,"lon":121.456604},
{"id":"74DA388FF4A2","area":"new taipei","org":"es","name":"新北市丹鳳國小","en":"","addr":"[242]新北市新莊區中山路三段625號","lat":25.024113,"lon":121.413750},
{"id":"74DA388FF4FA","area":"new taipei","org":"es","name":"新北市豐年國小","en":"","addr":"[242]新北市新莊區國泰里瓊泰路116號","lat":25.030947,"lon":121.443298},
{"id":"74DA388FF4E0","area":"new taipei","org":"es","name":"新北市昌隆國小","en":"","addr":"[242]新北市新莊區昌隆街63號","lat":25.050999,"lon":121.455986},
{"id":"74DA388FF4F6","area":"new taipei","org":"es","name":"新北市光華國小","en":"","addr":"[242]新北市新莊區龍安路452號","lat":25.017881,"lon":121.425117},
{"id":"74DA388FF4DC","area":"new taipei","org":"es","name":"新北市新泰國小","en":"","addr":"[242]新北市新莊區公園一路91號","lat":25.037910,"lon":121.443756},
{"id":"74DA388FF500","area":"new taipei","org":"es","name":"新北市裕民國小","en":"","addr":"[242]新北市新莊區裕民街123號","lat":25.021805,"lon":121.418030},
{"id":"74DA388FF504","area":"new taipei","org":"es","name":"新北市興化國小","en":"","addr":"[248]新北市新莊區福興里五工二路50巷2號","lat":25.065853,"lon":121.461594},
{"id":"74DA388FF4F0","area":"new taipei","org":"es","name":"新北市榮富國小","en":"","addr":"[242]新北市新莊區中和街193號","lat":25.051332,"lon":121.447357},
{"id":"74DA388FF4B6","area":"new taipei","org":"es","name":"新北市中信國小","en":"","addr":"[242]新北市新莊區中信街168號","lat":25.056202,"lon":121.447975},
{"id":"74DA388FF490","area":"new taipei","org":"es","name":"新北市昌平國小","en":"","addr":"[242]新北市新莊區昌平街200號","lat":25.056387,"lon":121.455353},
{"id":"74DA388FF508","area":"new taipei","org":"jh","name":"新北市新莊國中","en":"","addr":"[242]新北市新莊區中正路211號","lat":25.035830,"lon":121.451988},
{"id":"74DA388FF4EE","area":"new taipei","org":"jh","name":"新北市新泰國中","en":"","addr":"[242]新北市新莊區新泰路359號","lat":25.042614,"lon":121.444344},
{"id":"74DA388FF4EA","area":"new taipei","org":"jh","name":"新北市福營國中","en":"","addr":"[242]新北市新莊區富國路105號","lat":25.025244,"lon":121.422668},
{"id":"74DA388FF496","area":"new taipei","org":"jh","name":"新北市頭前國中","en":"","addr":"[242]新北市新莊區思源路485號","lat":25.054998,"lon":121.459602},
{"id":"74DA388FF4EC","area":"new taipei","org":"jh","name":"新北市中平國中","en":"","addr":"[242]新北市新莊區中平路385號","lat":25.054125,"lon":121.443436},
{"id":"74DA388FF49A","area":"new taipei","org":"sh","name":"新北市新莊高中","en":"","addr":"[242]新北市新莊區中平路135號","lat":25.048225,"lon":121.444641},
{"id":"74DA388FF492","area":"new taipei","org":"sh","name":"新北市丹鳳高中","en":"","addr":"[242]新北市新莊區龍安路72號","lat":25.021049,"lon":121.416542},
{"id":"74DA388FF4AC","area":"new taipei","org":"es","name":"新北市泰山國小","en":"","addr":"[243]新北市泰山區泰林路二段255號","lat":25.062471,"lon":121.431313},
{"id":"74DA388FF4AE","area":"new taipei","org":"es","name":"新北市明志國小","en":"","addr":"[243]新北市泰山區新生路2號","lat":25.045416,"lon":121.427422},
{"id":"74DA388FF49C","area":"new taipei","org":"es","name":"新北市同榮國小","en":"","addr":"[243]新北市泰山區公園路33號","lat":25.054375,"lon":121.428940},
{"id":"74DA388FF4B2","area":"new taipei","org":"es","name":"新北市義學國小","en":"","addr":"[243]新北市泰山區民生路30號","lat":25.051823,"lon":121.431320},
{"id":"74DA388FF4A6","area":"new taipei","org":"jh","name":"新北市泰山國中","en":"","addr":"[243]新北市泰山區泰林路二段498號","lat":25.063910,"lon":121.424637},
{"id":"74DA388FF4A8","area":"new taipei","org":"jh","name":"新北市義學國中","en":"","addr":"[243]新北市泰山區民生路30號","lat":25.051823,"lon":121.431320},
{"id":"74DA388FF4D6","area":"new taipei","org":"sh","name":"新北市泰山高中","en":"","addr":"[243]新北市泰山區辭修路7號","lat":25.057737,"lon":121.430153},
{"id":"74DA388FF4E2","area":"new taipei","org":"es","name":"新北市五股國小","en":"","addr":"[248]新北市五股區五股里成泰路二段49號","lat":25.083075,"lon":121.437683},
{"id":"74DA388FF4E8","area":"new taipei","org":"es","name":"新北市成州國小","en":"","addr":"[248]新北市五股區成泰路三段493號","lat":25.100138,"lon":121.451088},
{"id":"74DA388FF4B8","area":"new taipei","org":"es","name":"新北市更寮國小","en":"","addr":"[248]新北市五股區四維路2號","lat":25.070183,"lon":121.467072},
{"id":"74DA388FF4BE","area":"new taipei","org":"es","name":"新北市德音國小","en":"","addr":"[248]新北市五股區明德路2號","lat":25.071257,"lon":121.433968},
{"id":"74DA388FF4BG","area":"new taipei","org":"jh","name":"新北市五股國中","en":"","addr":"[248]新北市五股區成泰路二段49巷15號","lat":25.081455,"lon":121.437080},
{"id":"74DA388FF4C2","area":"new taipei","org":"es","name":"新北市八里國小","en":"","addr":"[249]新北市八里區舊城里中山路二段338號","lat":25.149920,"lon":121.404427},
{"id":"74DA388FF558","area":"new taipei","org":"es","name":"新北市米倉國小","en":"","addr":"[249]新北市八里區米倉里龍米路2段129巷1號","lat":25.158257,"lon":121.431831},
{"id":"74DA388FF536","area":"new taipei","org":"es","name":"新北市長坑國小","en":"","addr":"[249]新北市八里區長坑里長坑口12鄰25號","lat":25.126074,"lon":121.388031},
{"id":"74DA388FF506","area":"new taipei","org":"es","name":"新北市大崁國小","en":"","addr":"[249]新北市八里區忠八街2號","lat":25.161255,"lon":121.419357},
{"id":"74DA388FF4FE","area":"new taipei","org":"jh","name":"新北市八里國中","en":"","addr":"[249]新北市八里區荖阡坑路15號","lat":25.132429,"lon":121.403709},
{"id":"74DA388FF4FC","area":"new taipei","org":"es","name":"新北市林口國小","en":"","addr":"[244]新北市林口區菁湖里林口路76號","lat":25.080576,"lon":121.389191},
{"id":"74DA388FF57A","area":"new taipei","org":"es","name":"新北市嘉寶國小","en":"","addr":"[244]新北市林口區嘉寶里22號","lat":25.108255,"lon":121.339867},
{"id":"74DA388FF586","area":"new taipei","org":"es","name":"新北市興福國小","en":"","addr":"[244]新北市林口區下福里十九鄰10之1號","lat":25.114292,"lon":121.302689},
{"id":"74DA388FF57E","area":"new taipei","org":"es","name":"新北市南勢國小","en":"","addr":"[244]新北市林口區南勢里52號","lat":25.072372,"lon":121.357025},
{"id":"74DA388FF580","area":"new taipei","org":"es","name":"新北市瑞平國小","en":"","addr":"[244]新北市林口區太平里後坑路34之1號","lat":25.125851,"lon":121.353836},
{"id":"74DA388FF546","area":"new taipei","org":"es","name":"新北市麗園國小","en":"","addr":"[244]新北市林口區忠孝路591號","lat":25.068439,"lon":121.377731},
{"id":"74DA388FF54E","area":"new taipei","org":"es","name":"新北市麗林國小","en":"","addr":"[244]新北市林口區公園路46號","lat":25.068607,"lon":121.368233},
{"id":"74DA388FF528","area":"new taipei","org":"es","name":"新北市頭湖國小","en":"","addr":"[244]新北市林口區林口路76號","lat":25.080576,"lon":121.389191},
{"id":"74DA388FF584","area":"new taipei","org":"jh","name":"新北市林口國中","en":"","addr":"[244]新北市林口區民治路25號","lat":25.075804,"lon":121.377357},
{"id":"74DA388FF578","area":"new taipei","org":"jh","name":"新北市崇林國中","en":"","addr":"[244]新北市林口區文化一路一段20號","lat":25.072493,"lon":121.373169},
{"id":"74DA388FF58A","area":"new taipei","org":"jh","name":"新北市佳林國中","en":"","addr":"[244]新北市林口區文化一路一段20號","lat":25.072493,"lon":121.373169},
{"id":"74DA388FF58E","area":"new taipei","org":"sh","name":"新北市林口高中","en":"","addr":"[244]新北市林口區仁愛路二段173號","lat":25.074430,"lon":121.382507},
{"id":"74DA388FF538","area":"new taipei","org":"es","name":"新北市特殊教育學校","en":"","addr":"[244]新北市林口區文化北路一段425號","lat":25.076509,"lon":121.364815},
{"id":"74DA388FF416","area":"new taipei","org":"sh","name":"新北市北大高中","en":"","addr":"237新北市三峽區大義路277號","lat":24.946646,"lon":121.377388},
{"id":"74DA3895C48E","area":"taichung","org":"es","name":"臺中市樂業國小","en":"","addr":"40152 臺中市東區樂業路60號","lat":24.137878,"lon":120.694923},
{"id":"74DA3895C48A","area":"taichung","org":"es","name":"臺中市臺中國小","en":"","addr":"40146 臺中市東區臺中路153號","lat":24.131500,"lon":120.684639},
{"id":"74DA3895C2D0","area":"taichung","org":"es","name":"臺中市力行國小","en":"","addr":"40143 臺中市東區東勢里17鄰進化路223號","lat":24.151152,"lon":120.694160},
{"id":"74DA3895C2CE","area":"taichung","org":"es","name":"臺中市大智國小","en":"","addr":"40145 臺中市東區大智路359號","lat":24.128908,"lon":120.690529},
{"id":"74DA3895C47A","area":"taichung","org":"es","name":"臺中市進德國小","en":"","addr":"40141 臺中市東區東勢里進化路135號","lat":24.145521,"lon":120.693359},
{"id":"74DA3895C478","area":"taichung","org":"es","name":"臺中市成功國小","en":"","addr":"40152 臺中市東區旱溪西路一段300號","lat":24.137165,"lon":120.699707},
{"id":"74DA3895C480","area":"taichung","org":"es","name":"臺中市樹義國小","en":"","addr":"40241 臺中市南區福田路11號","lat":24.111347,"lon":120.657654},
{"id":"74DA3895C476","area":"taichung","org":"es","name":"臺中市信義國小","en":"","addr":"40246 臺中市南區五權南路325號","lat":24.121614,"lon":120.669746},
{"id":"74DA3895C2CA","area":"taichung","org":"es","name":"臺中市和平國小","en":"","addr":"40245 臺中市南區復興路二段57號","lat":24.120314,"lon":120.660110},
{"id":"74DA3895C2CC","area":"taichung","org":"es","name":"臺中市國光國小","en":"","addr":"40254 臺中市南區國光路261號","lat":24.125530,"lon":120.679863},
{"id":"74DA3895C228","area":"taichung","org":"es","name":"臺中市大同國小","en":"","addr":"40342 臺中市西區自由路一段138號","lat":24.135777,"lon":120.677925},
{"id":"74DA3895C200","area":"taichung","org":"es","name":"臺中市忠孝國小","en":"","addr":"40343 臺中市西區三民路一段171號","lat":24.137411,"lon":120.674126},
{"id":"74DA3895C226","area":"taichung","org":"es","name":"臺中市大勇國小","en":"","addr":"40347 臺中市西區忠明南路515號","lat":24.134478,"lon":120.657532},
{"id":"74DA3895C1FC","area":"taichung","org":"es","name":"臺中市忠信國小","en":"","addr":"40345 臺中市西區林森路155號","lat":24.139105,"lon":120.668762},
{"id":"74DA3895C20C","area":"taichung","org":"es","name":"臺中市忠明國小","en":"","addr":"40360 臺中市西區臺灣大道二段556號","lat":24.159460,"lon":120.660141},
{"id":"74DA3895C204","area":"taichung","org":"es","name":"臺中市中正國小","en":"","addr":"40350 臺中市西區英才路423號","lat":24.152035,"lon":120.665901},
{"id":"74DA3895C216","area":"taichung","org":"es","name":"臺中市賴厝國小","en":"","addr":"40449 臺中市北區漢口路四段168號","lat":24.166916,"lon":120.678658},
{"id":"74DA3895C206","area":"taichung","org":"es","name":"臺中市中華國小","en":"","addr":"40441 臺中市北區漢口路三段2號","lat":24.166496,"lon":120.665977},
{"id":"74DA3895C1F8","area":"taichung","org":"es","name":"臺中市太平國小","en":"","addr":"40444 臺中市北區太平路74號","lat":24.149031,"lon":120.681808},
{"id":"74DA3895C490","area":"taichung","org":"es","name":"臺中市省三國小","en":"","addr":"40452 臺中市北區崇德路一段107號","lat":24.159836,"lon":120.684784},
{"id":"74DA3895C3DA","area":"taichung","org":"es","name":"臺中市健行國小","en":"","addr":"40461 臺中市北區健行路666號","lat":24.159414,"lon":120.673637},
{"id":"74DA3895C34C","area":"taichung","org":"es","name":"臺中市篤行國小","en":"","addr":"40442 臺中市北區篤行路321號","lat":24.154858,"lon":120.673477},
{"id":"74DA3895C3D4","area":"taichung","org":"es","name":"臺中市立人國小","en":"","addr":"40460 臺中市北區北平路一段60號","lat":24.171566,"lon":120.668861},
{"id":"74DA3895C3F6","area":"taichung","org":"es","name":"臺中市光復國小","en":"","addr":"40042 臺中市中區三民路二段148號","lat":24.144028,"lon":120.681465},
{"id":"74DA3895C3D6","area":"taichung","org":"es","name":"臺中市文心國小","en":"","addr":"40666 臺中市北屯區文心路四段575號","lat":24.172676,"lon":120.682838},
{"id":"74DA3895C32E","area":"taichung","org":"es","name":"臺中市四維國小","en":"","addr":"40654 臺中市北屯區文心路四段956號","lat":24.170835,"lon":120.695259},
{"id":"74DA3895C404","area":"taichung","org":"es","name":"臺中市僑孝國小","en":"","addr":"40654 臺中市北屯區北屯路435號","lat":24.177513,"lon":120.699753},
{"id":"74DA3895C32C","area":"taichung","org":"es","name":"臺中市東光國小","en":"","addr":"40645 臺中市北屯區東光路926號","lat":24.171602,"lon":120.701347},
{"id":"74DA3895C30E","area":"taichung","org":"es","name":"臺中市逢甲國小","en":"","addr":"40661 臺中市北屯區北坑巷60號","lat":24.168472,"lon":120.758949},
{"id":"74DA3895C310","area":"taichung","org":"es","name":"臺中市文昌國小","en":"","addr":"40652 臺中市北屯區昌平路一段91號","lat":24.168459,"lon":120.692398},
{"id":"74DA3895C3CE","area":"taichung","org":"es","name":"臺中市陳平國小","en":"","addr":"40677 臺中市北屯區陳平路58號","lat":24.185205,"lon":120.667603},
{"id":"74DA3895C3F2","area":"taichung","org":"es","name":"臺中市松竹國小","en":"","addr":"40668 臺中市北屯區昌平路二段12號","lat":24.180937,"lon":120.689934},
{"id":"74DA3895C3D0","area":"taichung","org":"es","name":"臺中市建功國小","en":"","addr":"40643 臺中市北屯區軍功里軍和街43號","lat":24.175795,"lon":120.716133},
{"id":"74DA3895C34A","area":"taichung","org":"es","name":"臺中市仁愛國小","en":"","addr":"40677 臺中市北屯區四平路71號","lat":24.180031,"lon":120.671616},
{"id":"74DA3895C3F4","area":"taichung","org":"es","name":"臺中市新興國小","en":"","addr":"40682 臺中市北屯區新興路20號","lat":24.194412,"lon":120.662292},
{"id":"74DA3895C400","area":"taichung","org":"es","name":"臺中市仁美國小","en":"","addr":"40673 臺中市北屯區崇德路三段568號","lat":24.191853,"lon":120.686607},
{"id":"74DA3895C3FA","area":"taichung","org":"es","name":"臺中市四張犁國小","en":"","addr":"40679 臺中市北屯區后庄路910號","lat":24.193148,"lon":120.678024},
{"id":"74DA3895C350","area":"taichung","org":"es","name":"臺中市軍功國小","en":"","addr":"40642 臺中市北屯區軍福十三路300號","lat":24.172796,"lon":120.719513},
{"id":"74DA3895C3DE","area":"taichung","org":"es","name":"臺中市北屯國小","en":"","addr":"406 臺中市北屯區進化北路2號","lat":24.163350,"lon":120.691741},
{"id":"74DA3895C34E","area":"taichung","org":"es","name":"臺中市大坑國小","en":"","addr":"40662 薹中市北屯區東山路2段112號","lat":24.196367,"lon":120.747818},
{"id":"74DA3895C582","area":"taichung","org":"es","name":"臺中市重慶國小","en":"","addr":"40751 臺中市西屯區重慶路358號","lat":24.170828,"lon":120.664062},
{"id":"74DA3895C5A4","area":"taichung","org":"es","name":"臺中市國安國小","en":"","addr":"40763 臺中市西屯區永安里國祥街1號","lat":24.193579,"lon":120.609077},
{"id":"74DA3895C584","area":"taichung","org":"es","name":"臺中市上石國小","en":"","addr":"40744 臺中市西屯區西屯路二段上石南六巷25號","lat":24.174091,"lon":120.644470},
{"id":"74DA3895C28A","area":"taichung","org":"es","name":"臺中市西屯國小","en":"","addr":"40749 台中市西屯區西屯路二段300號","lat":24.179235,"lon":120.640465},
{"id":"74DA3895C586","area":"taichung","org":"es","name":"臺中市永安國小","en":"","addr":"40765 臺中市西屯區西屯路三段133號","lat":24.184845,"lon":120.625084},
{"id":"74DA3895C276","area":"taichung","org":"es","name":"臺中市上安國小","en":"","addr":"40757 臺中市西屯區上安路156號","lat":24.172070,"lon":120.639130},
{"id":"74DA3895C59A","area":"taichung","org":"es","name":"臺中市長安國小","en":"","addr":"40749 臺中市西屯區櫻花路18號","lat":24.169106,"lon":120.653076},
{"id":"74DA3895C26E","area":"taichung","org":"es","name":"臺中市惠來國小","en":"","addr":"40748 臺中市西屯區文中路168號","lat":24.164661,"lon":120.649078},
{"id":"74DA3895C58A","area":"taichung","org":"es","name":"臺中市何厝國小","en":"","addr":"40745 臺中市西屯區重慶路1號","lat":24.163326,"lon":120.654320},
{"id":"74DA3895C28C","area":"taichung","org":"es","name":"臺中市泰安國小","en":"","addr":"40760 臺中市西屯區環中路二段368號","lat":24.193924,"lon":120.643959},
{"id":"74DA3895C2D2","area":"taichung","org":"es","name":"臺中市大鵬國小","en":"","addr":"40754 臺中市西屯區中平路268號","lat":24.176992,"lon":120.664825},
{"id":"74DA3895C592","area":"taichung","org":"es","name":"臺中市大仁國小","en":"","addr":"40750 臺中市西屯區重慶路200號","lat":24.167549,"lon":120.658058},
{"id":"74DA3895C5A6","area":"taichung","org":"es","name":"臺中市協和國小","en":"","addr":"40765 臺中市西屯區安和路99號","lat":24.170218,"lon":120.619949},
{"id":"74DA3895C5B2","area":"taichung","org":"es","name":"臺中市東海國小","en":"","addr":"407 臺中市西屯區福聯里國際街75號","lat":24.185738,"lon":120.594749},
{"id":"74DA3895C56E","area":"taichung","org":"es","name":"臺中市東興國小","en":"","addr":"40848 臺中市南屯區大隆路71號","lat":24.156048,"lon":120.653069},
{"id":"74DA3895C5D8","area":"taichung","org":"es","name":"臺中市永春國小","en":"","addr":"40855 臺中市南屯區永春東路288號","lat":24.134928,"lon":120.647636},
{"id":"74DA3895C5D6","area":"taichung","org":"es","name":"臺中市大新國小","en":"","addr":"40866 臺中市南屯區文心路一段280號","lat":24.145931,"lon":120.646957},
{"id":"74DA3895C5DC","area":"taichung","org":"es","name":"臺中市惠文國小","en":"","addr":"40861 臺中市南屯區公益路二段300號","lat":24.151655,"lon":120.638260},
{"id":"74DA3895C5DE","area":"taichung","org":"es","name":"臺中市大墩國小","en":"","addr":"40867 臺中市南屯區向上路二段201號","lat":24.146786,"lon":120.639458},
{"id":"74DA3895C594","area":"taichung","org":"es","name":"臺中市文山國小","en":"","addr":"40869 台中市南屯區南屯區文山里忠勇路97號","lat":24.149336,"lon":120.615395},
{"id":"74DA3895C390","area":"taichung","org":"es","name":"臺中市南屯國小","en":"","addr":"40841 台中市南屯區南屯區黎明路一段968號","lat":24.136787,"lon":120.637283},
{"id":"74DA3895C380","area":"taichung","org":"es","name":"臺中市鎮平國小","en":"","addr":"40871 臺中市南屯區黎明路一段425號","lat":24.121574,"lon":120.629097},
{"id":"74DA3895C37E","area":"taichung","org":"es","name":"臺中市春安國小","en":"","addr":"40851 臺中市南屯區春安路109號","lat":24.134804,"lon":120.608315},
{"id":"74DA3895C37C","area":"taichung","org":"es","name":"臺中市黎明國小","en":"","addr":"40873 臺中市南屯區黎明路二段555號","lat":24.157722,"lon":120.633995},
{"id":"74DA3895C25E","area":"taichung","org":"es","name":"臺中市豐原國小","en":"","addr":"42060 臺中市豐原區新生北路155號","lat":24.254578,"lon":120.720802},
{"id":"74DA3895C504","area":"taichung","org":"es","name":"臺中市瑞穗國小","en":"","addr":"420 臺中市豐原區西安街72號","lat":24.249365,"lon":120.712799},
{"id":"74DA3895C4AA","area":"taichung","org":"es","name":"臺中市南陽國小","en":"","addr":"42087 臺中市豐原區南陽路440號","lat":24.248411,"lon":120.722694},
{"id":"74DA3895C4CA","area":"taichung","org":"es","name":"臺中市富春國小","en":"","addr":"42044 臺中市豐原區中山路455號","lat":24.252218,"lon":120.714081},
{"id":"74DA3895C4C6","area":"taichung","org":"es","name":"臺中市豐村國小","en":"","addr":"42084 臺中市豐原區水源路341號","lat":24.255527,"lon":120.736221},
{"id":"74DA3895C4C4","area":"taichung","org":"es","name":"臺中市翁子國小","en":"","addr":"42085 臺中市豐原區豐勢路二段290巷3號","lat":24.260895,"lon":120.736023},
{"id":"74DA3895C202","area":"taichung","org":"es","name":"臺中市豐田國小","en":"","addr":"42082 臺中市豐原區田心路二段290號","lat":24.236870,"lon":120.721558},
{"id":"74DA3895C460","area":"taichung","org":"es","name":"臺中市合作國小","en":"","addr":"42077 臺中市豐原區西勢路410號","lat":24.240007,"lon":120.703476},
{"id":"74DA3895C516","area":"taichung","org":"es","name":"臺中市葫蘆墩國小","en":"","addr":"42086 臺中市豐原區葫蘆墩一街250號","lat":24.260883,"lon":120.714470},
{"id":"74DA3895C536","area":"taichung","org":"es","name":"臺中市福陽國小","en":"","addr":"42075 臺中市豐原區南陽路綠山巷83號","lat":24.242256,"lon":120.735283},
{"id":"74DA3895C564","area":"taichung","org":"es","name":"臺中市后里國小","en":"","addr":"42141 臺中市后里區義里里甲后路110號","lat":24.309456,"lon":120.729675},
{"id":"74DA3895C508","area":"taichung","org":"es","name":"臺中市內埔國小","en":"","addr":"42150 臺中市后里區墩東里文化路30號","lat":24.307068,"lon":120.714966},
{"id":"74DA3895C4C0","area":"taichung","org":"es","name":"臺中市月眉國小","en":"","addr":"42145 臺中市后里區眉山里甲后路940號","lat":24.314053,"lon":120.691429},
{"id":"74DA3895C384","area":"taichung","org":"es","name":"臺中市七星國小","en":"","addr":"42147 臺中市后里區墩南里南村路389號","lat":24.303226,"lon":120.712608},
{"id":"74DA3895C382","area":"taichung","org":"es","name":"臺中市育英國小","en":"","addr":"42157 臺中市后里區太平里四月路23號","lat":24.311518,"lon":120.683563},
{"id":"74DA3895C388","area":"taichung","org":"es","name":"臺中市泰安國小","en":"","addr":"42156 臺中市后里區泰安里安眉路五號","lat":24.326384,"lon":120.748375},
{"id":"74DA3895C530","area":"taichung","org":"es","name":"臺中市神岡國小","en":"","addr":"42954 臺中市神岡區神圳路1號","lat":24.258661,"lon":120.661171},
{"id":"74DA3895C51E","area":"taichung","org":"es","name":"臺中市豐洲國小","en":"","addr":"42945 臺中市神岡區豐洲路482號","lat":24.262007,"lon":120.703773},
{"id":"74DA3895C546","area":"taichung","org":"es","name":"臺中市社口國小","en":"","addr":"429 臺中巿神岡區社南里社南街136號","lat":24.244974,"lon":120.686012},
{"id":"74DA3895C278","area":"taichung","org":"es","name":"臺中市岸裡國小","en":"","addr":"42946 臺中市神岡區岸裡村中山路52號","lat":24.248819,"lon":120.698090},
{"id":"74DA3895C548","area":"taichung","org":"es","name":"臺中市圳堵國小","en":"","addr":"42954 臺中市神岡區圳堵里三民路639號","lat":24.272875,"lon":120.659531},
{"id":"74DA3895C51C","area":"taichung","org":"es","name":"臺中市大雅國小","en":"","addr":"42856 臺中市大雅區二和里學府路230號","lat":24.222158,"lon":120.649986},
{"id":"74DA3895C522","area":"taichung","org":"es","name":"臺中市三和國小","en":"","addr":"42875 臺中市大雅區三和里春亭二街一號","lat":24.220142,"lon":120.664413},
{"id":"74DA3895C538","area":"taichung","org":"es","name":"臺中市大明國小","en":"","addr":"42878 臺中市大雅區中清路四段158號","lat":24.228554,"lon":120.643242},
{"id":"74DA3895C51A","area":"taichung","org":"es","name":"臺中市上楓國小","en":"","addr":"42872 臺中市大雅區上楓里楓林街232號","lat":24.236092,"lon":120.666748},
{"id":"74DA3895C53A","area":"taichung","org":"es","name":"臺中市汝鎏國小","en":"","addr":"42878 臺中市大雅區秀山里平和路238號","lat":24.230988,"lon":120.625992},
{"id":"74DA3895C52C","area":"taichung","org":"es","name":"臺中市陽明國小","en":"","addr":"42878 臺中市大雅區秀山里秀山路365號","lat":24.221298,"lon":120.631660},
{"id":"74DA3895C50E","area":"taichung","org":"es","name":"臺中市文雅國小","en":"","addr":"42843 臺中市大雅區中山北路235號","lat":24.220221,"lon":120.646111},
{"id":"74DA3895C52A","area":"taichung","org":"es","name":"臺中市六寶國小","en":"","addr":"42849 臺中市大雅區光復路15之2號","lat":24.239174,"lon":120.636726},
{"id":"74DA3895C518","area":"taichung","org":"es","name":"臺中市潭子國小","en":"","addr":"42758 臺中市潭子區中山路二段435號","lat":24.215893,"lon":120.705360},
{"id":"74DA3895C534","area":"taichung","org":"es","name":"臺中市僑忠國小","en":"","addr":"42755 臺中市潭子區中山路二段31號","lat":24.202497,"lon":120.703712},
{"id":"74DA3895C570","area":"taichung","org":"es","name":"臺中市東寶國小","en":"","addr":"42756 臺中市潭子區雅潭路三段二號","lat":24.215883,"lon":120.681335},
{"id":"74DA3895C526","area":"taichung","org":"es","name":"臺中市新興國小","en":"","addr":"42743 臺中市潭子區潭興路一段25號","lat":24.203989,"lon":120.725525},
{"id":"74DA3895C510","area":"taichung","org":"es","name":"臺中市潭陽國小","en":"","addr":"42751 臺中市潭子區潭陽路19號","lat":24.213041,"lon":120.710129},
{"id":"74DA3895C528","area":"taichung","org":"es","name":"臺中市頭家國小","en":"","addr":"42746 臺中市潭子區得福街185號","lat":24.197025,"lon":120.696220},
{"id":"74DA3895C512","area":"taichung","org":"es","name":"臺中市外埔國小","en":"","addr":"43857 臺中市外埔區甲后路436號","lat":24.332241,"lon":120.652847},
{"id":"74DA3895C4AE","area":"taichung","org":"es","name":"臺中市安定國小","en":"","addr":"43866 臺中市外埔區土城里土城西路55號","lat":24.345526,"lon":120.705025},
{"id":"74DA3895C424","area":"taichung","org":"es","name":"臺中市鐵山國小","en":"","addr":"43865 臺中市外埔區鐵山里長生路576號","lat":24.349033,"lon":120.656693},
{"id":"74DA3895C578","area":"taichung","org":"es","name":"臺中市馬鳴國小","en":"","addr":"43860 臺中市外埔區中山里東西巷13號","lat":24.338728,"lon":120.664162},
{"id":"74DA3895C57C","area":"taichung","org":"es","name":"臺中市水美國小","en":"","addr":"43858 臺中市外埔區水美里二崁路390巷63號","lat":24.325338,"lon":120.642044},
{"id":"74DA3895C282","area":"taichung","org":"es","name":"臺中市石岡國小","en":"","addr":"422 臺中市石岡區422石岡街123號","lat":24.276663,"lon":120.774170},
{"id":"74DA3895C57A","area":"taichung","org":"es","name":"臺中市土牛國小","en":"","addr":"42255 臺中市石岡區土牛里豐勢路308號","lat":24.265903,"lon":120.807457},
{"id":"74DA3895C554","area":"taichung","org":"es","name":"臺中市大南國小","en":"","addr":"42642 臺中市新社區大南里興中街47號","lat":24.219585,"lon":120.803299},
{"id":"74DA3895C556","area":"taichung","org":"es","name":"臺中市東興國小","en":"","addr":"42643 臺中市新社區東興里興社街1段國校巷13號","lat":24.206154,"lon":120.820099},
{"id":"74DA3895C580","area":"taichung","org":"es","name":"臺中市協成國小","en":"","addr":"426 臺中市新社區協成里興義街219號","lat":24.192772,"lon":120.813492},
{"id":"74DA3895C558","area":"taichung","org":"es","name":"臺中市新社國小","en":"","addr":"42641 臺中市新社區新社里興社街四段1巷2號","lat":24.241085,"lon":120.808876},
{"id":"74DA3895C4B4","area":"taichung","org":"es","name":"臺中市大林國小","en":"","addr":"42661 臺中市新社區福興里美林38號","lat":24.159809,"lon":120.863869},
{"id":"74DA3895C544","area":"taichung","org":"es","name":"臺中市中和國小","en":"","addr":"42647 臺中市新社區中和里中興街129號","lat":24.157557,"lon":120.827744},
{"id":"74DA3895C4B2","area":"taichung","org":"es","name":"臺中市崑山國小","en":"","addr":"42642 臺中市新社區崑山里崑南街崑崙巷5-2號","lat":24.242771,"lon":120.786255},
{"id":"74DA3895C4B0","area":"taichung","org":"es","name":"臺中市福民國小","en":"","addr":"42661 臺中市新社區福興里福民16之7號","lat":24.164152,"lon":120.881248},
{"id":"74DA3895C550","area":"taichung","org":"es","name":"臺中市和平國小","en":"","addr":"42441 臺中市和平區南勢里東關路三段54號","lat":24.168022,"lon":120.903099},
{"id":"74DA3895C5C0","area":"taichung","org":"es","name":"臺中市東勢國小","en":"","addr":"42343 臺中市東勢區廣興里第五橫街1號","lat":24.258512,"lon":120.830765},
{"id":"74DA3895C4A2","area":"taichung","org":"es","name":"臺中市東新國小","en":"","addr":"42341 臺中市東勢區東新里東蘭路1之1號","lat":24.260799,"lon":120.827255},
{"id":"74DA3895C5C2","area":"taichung","org":"es","name":"臺中市成功國小","en":"","addr":"42347 臺中市東勢區東關路298號","lat":24.207861,"lon":120.839622},
{"id":"74DA3895C542","area":"taichung","org":"es","name":"臺中市新成國小","en":"","addr":"42344 臺中市東勢區東關路三六七巷四十號","lat":24.163706,"lon":120.862076},
{"id":"74DA3895C4B6","area":"taichung","org":"es","name":"臺中市石角國小","en":"","addr":"42345 臺中市東勢區隆興里東坑路西盛巷22號","lat":24.237810,"lon":120.850708},
{"id":"74DA3895C456","area":"taichung","org":"es","name":"臺中市中山國小","en":"","addr":"42348 臺中市東勢區泰昌里中泰街88號","lat":24.252939,"lon":120.835114},
{"id":"74DA3895C468","area":"taichung","org":"es","name":"臺中市石城國小","en":"","addr":"42349 臺中市東勢區茂興里石城街182巷26號","lat":24.285982,"lon":120.795189},
{"id":"74DA3895C46E","area":"taichung","org":"es","name":"臺中市明正國小","en":"","addr":"42346 臺中市東勢區明正里東蘭路永盛巷57-1號","lat":24.309629,"lon":120.790833},
{"id":"74DA3895C46A","area":"taichung","org":"es","name":"臺中市中科國小","en":"","addr":"42348 臺中市東勢區東崎路4段92巷16號","lat":24.252102,"lon":120.842445},
{"id":"74DA3895C4F8","area":"taichung","org":"es","name":"臺中市新盛國小","en":"","addr":"42350 臺中市東勢區新盛里新盛街342號","lat":24.243515,"lon":120.831833},
{"id":"74DA3895C50C","area":"taichung","org":"es","name":"臺中市中坑國小","en":"","addr":"424 臺中市和平區中坑里中坑巷41號","lat":24.245205,"lon":120.886581},
{"id":"74DA3895C49A","area":"taichung","org":"es","name":"臺中市平等國小","en":"","addr":"42413 臺中市和平區平等里中興路三段環山三巷35號","lat":24.315851,"lon":121.292747},
{"id":"74DA3895C492","area":"taichung","org":"es","name":"臺中市自由國小","en":"","addr":"42450 臺中市和平區自由里東崎路二段49  號","lat":24.291868,"lon":120.909660},
{"id":"74DA3895C4D0","area":"taichung","org":"es","name":"臺中市自由國小烏石分校","en":"","addr":"42450 臺中市和平區自由里東崎路烏石巷62號","lat":24.290997,"lon":120.907761},
{"id":"74DA3895C494","area":"taichung","org":"es","name":"臺中市達觀國小","en":"","addr":"42450 臺中市和平區達觀里東崎路一段育英巷6號","lat":24.328127,"lon":120.920723},
{"id":"74DA3895C474","area":"taichung","org":"es","name":"臺中市白冷國小","en":"","addr":"42441 臺中市和平區天輪里東關路二段天輪巷42號","lat":24.182060,"lon":120.926498},
{"id":"74DA3895C4FA","area":"taichung","org":"es","name":"臺中市博愛國小","en":"","addr":"42445 臺中市和平區博愛里松鶴三巷10號","lat":24.172068,"lon":120.973244},
{"id":"74DA3895C50A","area":"taichung","org":"es","name":"臺中市博愛國小谷關分校","en":"","addr":"424 臺中市和平區博愛里分校巷29號","lat":24.202421,"lon":121.007164},
{"id":"74DA3895C4A6","area":"taichung","org":"es","name":"臺中市清水國小","en":"","addr":"43655 臺中市清水區光華路125號","lat":24.266754,"lon":120.573349},
{"id":"74DA3895C4FC","area":"taichung","org":"es","name":"臺中市西寧國小","en":"","addr":"43646 臺中市清水區西寧里五權東路50號","lat":24.275789,"lon":120.574974},
{"id":"74DA3895C484","area":"taichung","org":"es","name":"臺中市建國國小","en":"","addr":"43648 臺中市清水區建國路10號","lat":24.270405,"lon":120.562592},
{"id":"74DA3895C4F6","area":"taichung","org":"es","name":"臺中市大秀國小","en":"","addr":"43647 臺中市清水區五權路336號","lat":24.278982,"lon":120.557419},
{"id":"74DA3895C4EE","area":"taichung","org":"es","name":"臺中市三田國小","en":"","addr":"43644 臺中市清水區田寮里三田路四號","lat":24.290583,"lon":120.581467},
{"id":"74DA3895C4F4","area":"taichung","org":"es","name":"臺中市甲南國小","en":"","addr":"43643 臺中市清水區臨海路26號","lat":24.305014,"lon":120.595589},
{"id":"74DA3895C454","area":"taichung","org":"es","name":"臺中市高美國小","en":"","addr":"43645 臺中市清水區高美里護岸路37號","lat":24.311682,"lon":120.562614},
{"id":"74DA3895C262","area":"taichung","org":"es","name":"臺中市槺榔國小","en":"","addr":"43649 臺中市清水區中央路23-12號","lat":24.264009,"lon":120.545181},
{"id":"74DA3895C258","area":"taichung","org":"es","name":"臺中市大楊國小","en":"","addr":"43641 臺中市清水區楊厝里鰲海路325號","lat":24.292475,"lon":120.609840},
{"id":"74DA3895C252","area":"taichung","org":"es","name":"臺中市東山國小","en":"","addr":"43641 臺中市清水區東山里神清路6-1號","lat":24.276636,"lon":120.634720},
{"id":"74DA3895C3AA","area":"taichung","org":"es","name":"臺中市吳厝國小","en":"","addr":"43641 臺中市清水區吳厝里吳厝路35號","lat":24.268150,"lon":120.597816},
{"id":"74DA3895C248","area":"taichung","org":"es","name":"臺中市梧棲國小","en":"","addr":"43546 臺中市梧棲區民生街45號","lat":24.253061,"lon":120.531113},
{"id":"74DA3895C25C","area":"taichung","org":"es","name":"臺中市中正國小","en":"","addr":"43544 臺中市梧棲區福德里中央路2段15號","lat":24.250387,"lon":120.538841},
{"id":"74DA3895C246","area":"taichung","org":"es","name":"臺中市永寧國小","en":"","addr":"43546 臺中市梧棲區中央路一段160號","lat":24.229225,"lon":120.532303},
{"id":"74DA3895C250","area":"taichung","org":"es","name":"臺中市梧南國小","en":"","addr":"43547 臺中市梧棲區梧南路50號","lat":24.242102,"lon":120.523827},
{"id":"74DA3895C24A","area":"taichung","org":"es","name":"臺中市中港國小","en":"","addr":"43550 臺中市梧棲區大村里文明街100號","lat":24.240788,"lon":120.555611},
{"id":"74DA3895C240","area":"taichung","org":"es","name":"臺中市大德國小","en":"","addr":"43545 臺中市梧棲區大村里文昌路343號","lat":24.243574,"lon":120.542648},
{"id":"74DA3895C23C","area":"taichung","org":"es","name":"臺中市沙鹿國小","en":"","addr":"43353 臺中市沙鹿區美仁里中正街3號","lat":24.235802,"lon":120.561569},
{"id":"74DA3895C244","area":"taichung","org":"es","name":"臺中市竹林國小","en":"","addr":"43391 臺中市沙鹿區臺灣大道七段821號","lat":24.238539,"lon":120.567871},
{"id":"74DA3895C23A","area":"taichung","org":"es","name":"臺中市北勢國小","en":"","addr":"43342 臺中市沙鹿區六路里南陽路376號","lat":24.216934,"lon":120.571548},
{"id":"74DA3895C236","area":"taichung","org":"es","name":"臺中市文光國小","en":"","addr":"43345 臺中市沙鹿區斗抵里斗潭路文光巷12號","lat":24.226339,"lon":120.556206},
{"id":"74DA3895C25A","area":"taichung","org":"es","name":"臺中市鹿峰國小","en":"","addr":"43341 臺中市沙鹿區鹿峰里星河路209號","lat":24.255608,"lon":120.570015},
{"id":"74DA3895C234","area":"taichung","org":"es","name":"臺中市公明國小","en":"","addr":"43346 臺中市沙鹿區公明里忠貞路213號","lat":24.243158,"lon":120.609711},
{"id":"74DA3895C256","area":"taichung","org":"es","name":"臺中市公館國小","en":"","addr":"43348 臺中市沙鹿區西勢里中航路二段1號","lat":24.261503,"lon":120.593689},
{"id":"74DA3895C24E","area":"taichung","org":"es","name":"臺中市東陽國小","en":"","addr":"43742 臺中市大甲區中山里甲東路520號","lat":24.340540,"lon":120.628769},
{"id":"74DA3895C254","area":"taichung","org":"es","name":"臺中市大甲國小","en":"","addr":"43749 臺中市大甲區育德路233號","lat":24.350826,"lon":120.626366},
{"id":"74DA3895C24C","area":"taichung","org":"es","name":"臺中市文昌國小","en":"","addr":"43749 臺中市大甲區育德路113號","lat":24.347961,"lon":120.624374},
{"id":"74DA3895C4BE","area":"taichung","org":"es","name":"臺中市順天國小","en":"","addr":"43745 臺中市大甲區新美里18鄰經國路168號","lat":24.344458,"lon":120.618217},
{"id":"74DA3895C4BC","area":"taichung","org":"es","name":"臺中市德化國小","en":"","addr":"43761 臺中市大甲區德化里和平路290號","lat":24.362194,"lon":120.624603},
{"id":"74DA3895C22E","area":"taichung","org":"es","name":"臺中市東明國小","en":"","addr":"43773 臺中市大甲區幸福里東明路93號","lat":24.374777,"lon":120.680534},
{"id":"74DA3895C4FE","area":"taichung","org":"es","name":"臺中市日南國小","en":"","addr":"43769 臺中市大甲區幸福里中山路二段568號","lat":24.389662,"lon":120.654251},
{"id":"74DA3895C506","area":"taichung","org":"es","name":"臺中市華龍國小","en":"","addr":"43770 臺中市大甲區日南里工二路一號","lat":24.405861,"lon":120.648033},
{"id":"74DA3895C29E","area":"taichung","org":"es","name":"臺中市西岐國小","en":"","addr":"43774 臺中市大甲區順帆路96號","lat":24.420265,"lon":120.628487},
{"id":"74DA3895C298","area":"taichung","org":"es","name":"臺中市文武國小","en":"","addr":"43750 臺中市大甲區武陵里文曲路61號","lat":24.335997,"lon":120.600777},
{"id":"74DA3895C386","area":"taichung","org":"es","name":"臺中市大安國小","en":"","addr":"43952 臺中市大安區中庄里3鄰中山南路296號","lat":24.344908,"lon":120.587975},
{"id":"74DA3895C4B8","area":"taichung","org":"es","name":"臺中市海墘國小","en":"","addr":"43963 臺中市大安區海墘里大安港路1100號","lat":24.378620,"lon":120.589027},
{"id":"74DA3895C420","area":"taichung","org":"es","name":"臺中市三光國小","en":"","addr":"43953 臺中市大安區龜殼里3鄰中松路297號","lat":24.355165,"lon":120.598946},
{"id":"74DA3895C296","area":"taichung","org":"es","name":"臺中市永安國小","en":"","addr":"43964 臺中市大安區永安里東西四路252號","lat":24.382338,"lon":120.606247},
{"id":"74DA3895C2A4","area":"taichung","org":"es","name":"臺中市龍井國小","en":"","addr":"43443 臺中市龍井區龍西里龍門路51號","lat":24.181179,"lon":120.529625},
{"id":"74DA3895C374","area":"taichung","org":"es","name":"臺中市龍泉國小","en":"","addr":"43452 臺中市龍井區龍泉里龍新路162號","lat":24.196424,"lon":120.547585},
{"id":"74DA3895C2A6","area":"taichung","org":"es","name":"臺中市龍津國小","en":"","addr":"43451 臺中市龍井區龍津里中央路一段165巷50號","lat":24.198088,"lon":120.523407},
{"id":"74DA3895C2A8","area":"taichung","org":"es","name":"臺中市龍峰國小","en":"","addr":"43441 臺中市龍井區新庄里中沙路二號","lat":24.192205,"lon":120.570541},
{"id":"74DA3895C500","area":"taichung","org":"es","name":"臺中市龍山國小","en":"","addr":"43447 臺中市龍井區山腳里中山一路一段六號","lat":24.213446,"lon":120.550629},
{"id":"74DA3895C3E6","area":"taichung","org":"es","name":"臺中市龍港國小","en":"","addr":"43444 臺中市龍井區麗水里三港路1號","lat":24.198458,"lon":120.501259},
{"id":"74DA3895C4C8","area":"taichung","org":"es","name":"臺中市龍海國小","en":"","addr":"43447 臺中市龍井區忠和里中央路三段206號","lat":24.215748,"lon":120.526291},
{"id":"74DA3895C3E0","area":"taichung","org":"es","name":"臺中市追分國小","en":"","addr":"43245 臺中市大肚區福山村沙田路一段364號","lat":24.124189,"lon":120.563370},
{"id":"74DA3895C3F8","area":"taichung","org":"es","name":"臺中市大忠國小","en":"","addr":"43244 臺中市大肚區社腳里沙田路一段八五四巷二四號","lat":24.132536,"lon":120.554070},
{"id":"74DA3895C53E","area":"taichung","org":"es","name":"臺中市永順國小","en":"","addr":"43243 臺中市大肚區永順里文昌路二段586號","lat":24.158842,"lon":120.532417},
{"id":"74DA3895C5C6","area":"taichung","org":"es","name":"臺中市瑞峰國小","en":"","addr":"43248 臺中市大肚區蔗廍里太平路一號","lat":24.170668,"lon":120.574600},
{"id":"74DA3895C53C","area":"taichung","org":"es","name":"臺中市大肚國小","en":"","addr":"43252 臺中市大肚區華山路七七號","lat":24.155182,"lon":120.545792},
{"id":"74DA3895C568","area":"taichung","org":"es","name":"臺中市山陽國小","en":"","addr":"43251 臺中市大肚區山陽里榮華街630號","lat":24.163610,"lon":120.544296},
{"id":"74DA3895C532","area":"taichung","org":"es","name":"臺中市瑞井國小","en":"","addr":"43249 臺中市大肚區瑞井里華山路680號","lat":24.160101,"lon":120.565620},
{"id":"74DA3895C242","area":"taichung","org":"es","name":"臺中市烏日國小","en":"","addr":"41441 臺中市烏日區中山路二段196號","lat":24.106510,"lon":120.623444},
{"id":"74DA3895C232","area":"taichung","org":"es","name":"臺中市僑仁國小","en":"","addr":"41443 臺中市烏日區中山路1段341號","lat":24.108269,"lon":120.640244},
{"id":"74DA3895C22C","area":"taichung","org":"es","name":"臺中市九德國小","en":"","addr":"41445 臺中市烏日區九德里長春街300號","lat":24.109884,"lon":120.638969},
{"id":"74DA3895C5D0","area":"taichung","org":"es","name":"臺中市喀哩國小","en":"","addr":"41466 臺中市烏日區溪南路二段370號","lat":24.062269,"lon":120.642998},
{"id":"74DA3895C23E","area":"taichung","org":"es","name":"臺中市旭光國小","en":"","addr":"41450 臺中市烏日區成功西路13號","lat":24.114532,"lon":120.599197},
{"id":"74DA3895C5A0","area":"taichung","org":"es","name":"臺中市東園國小","en":"","addr":"41462 臺中市烏日區溪南路一段238巷198號","lat":24.083523,"lon":120.639626},
{"id":"74DA3895C52E","area":"taichung","org":"es","name":"臺中市五光國小","en":"","addr":"41471 臺中市烏日區光明里光明路40號","lat":24.094280,"lon":120.646576},
{"id":"74DA3895C59C","area":"taichung","org":"es","name":"臺中市溪尾國小","en":"","addr":"41491 臺中市烏日區溪尾里溪岸路26號","lat":24.042322,"lon":120.640602},
{"id":"74DA3895C59E","area":"taichung","org":"es","name":"臺中市大里國小","en":"","addr":"41283 臺中市大里區新興路50號","lat":24.100548,"lon":120.677017},
{"id":"74DA3895C520","area":"taichung","org":"es","name":"臺中市內新國小","en":"","addr":"412 臺中市大里區新仁路二段42號","lat":24.111650,"lon":120.695808},
{"id":"74DA3895C238","area":"taichung","org":"es","name":"臺中市塗城國小","en":"","addr":"41284 臺中市大里區仁德里13鄰文化街120號","lat":24.093130,"lon":120.700369},
{"id":"74DA3895C562","area":"taichung","org":"es","name":"臺中市瑞城國小","en":"","addr":"41272 臺中市大里區美村街196號","lat":24.086090,"lon":120.702843},
{"id":"74DA3895C5D2","area":"taichung","org":"es","name":"臺中市健民國小","en":"","addr":"41217 臺中市大里區健民里校前路26號","lat":24.089413,"lon":120.727898},
{"id":"74DA3895C566","area":"taichung","org":"es","name":"臺中市益民國小","en":"","addr":"41256 臺中市大里區益民路二段48號","lat":24.106768,"lon":120.687286},
{"id":"74DA3895C5D4","area":"taichung","org":"es","name":"臺中市草湖國小","en":"","addr":"412 臺中市大里區西湖路32號","lat":24.078247,"lon":120.689995},
{"id":"74DA3895C4C2","area":"taichung","org":"es","name":"臺中市崇光國小","en":"","addr":"412 臺中市大里區大明路181號","lat":24.115141,"lon":120.684563},
{"id":"74DA3895C4DC","area":"taichung","org":"es","name":"臺中市大元國小","en":"","addr":"412 臺中市大里區現岱路60號","lat":24.102745,"lon":120.691078},
{"id":"74DA3895C498","area":"taichung","org":"es","name":"臺中市美群國小","en":"","addr":"412 臺中市大里區美群路99號","lat":24.084164,"lon":120.708824},
{"id":"74DA3895C4DE","area":"taichung","org":"es","name":"臺中市永隆國小","en":"","addr":"41257 臺中市大里區永隆五街2號","lat":24.111010,"lon":120.677711},
{"id":"74DA3895C49C","area":"taichung","org":"es","name":"臺中市立新國小","en":"","addr":"41247 臺中市大里區立新街338號","lat":24.105431,"lon":120.699570},
{"id":"74DA3895C4D2","area":"taichung","org":"es","name":"臺中市僑榮國小","en":"","addr":"41346 臺中市霧峰區甲寅里民生路156號","lat":24.070509,"lon":120.702972},
{"id":"74DA3895C49E","area":"taichung","org":"es","name":"臺中市四德國小","en":"","addr":"41356 臺中市霧峰區四德路504號","lat":24.060804,"lon":120.667717},
{"id":"74DA3895C4D4","area":"taichung","org":"es","name":"臺中市萬豐國小","en":"","addr":"41362 臺中市霧峰區萬豐里中正路224號","lat":24.027843,"lon":120.697006},
{"id":"74DA3895C48C","area":"taichung","org":"es","name":"臺中市霧峰國小","en":"","addr":"41341 臺中市霧峰區中正路736號","lat":24.059433,"lon":120.698067},
{"id":"74DA3895C4D6","area":"taichung","org":"es","name":"臺中市五福國小","en":"","addr":"41356 臺中市霧峰區五福里新埔路239號","lat":24.077984,"lon":120.669632},
{"id":"74DA3895C4E2","area":"taichung","org":"es","name":"臺中市光正國小","en":"","addr":"41357 臺中市霧峰區北勢里豐正路五六六號","lat":24.036001,"lon":120.668800},
{"id":"74DA3895C4A4","area":"taichung","org":"es","name":"臺中市峰谷國小","en":"","addr":"41363 臺中市霧峰區峰谷路496號","lat":24.035370,"lon":120.724190},
{"id":"74DA3895C496","area":"taichung","org":"es","name":"臺中市桐林國小","en":"","addr":"41348 臺中市霧峰區桐林里民生路675號","lat":24.065952,"lon":120.735527},
{"id":"74DA3895C4E4","area":"taichung","org":"es","name":"臺中市復興國小","en":"","addr":"41364 臺中市霧峰區坑口里信義路50號","lat":24.042679,"lon":120.697189},
{"id":"74DA3895C4E0","area":"taichung","org":"es","name":"臺中市吉峰國小","en":"","addr":"41348 臺中市霧峰區吉峰里民生路349號","lat":24.078606,"lon":120.718323},
{"id":"74DA3895C4AC","area":"taichung","org":"es","name":"臺中市太平國小","en":"","addr":"41142 臺中市太平區中興路35號","lat":24.128263,"lon":120.717522},
{"id":"74DA3895C4D8","area":"taichung","org":"es","name":"臺中市宜欣國小","en":"","addr":"41163 臺中市太平區新平路二段100號","lat":24.139565,"lon":120.715065},
{"id":"74DA3895C4BA","area":"taichung","org":"es","name":"臺中市坪林國小","en":"","addr":"41151 臺中市太平區坪林里坪林路45號","lat":24.145136,"lon":120.737297},
{"id":"74DA3895C4A0","area":"taichung","org":"es","name":"臺中市坪林國小坪廓分校","en":"","addr":"41151臺中市太平區廍仔坑路95號","lat":24.124071,"lon":120.717072},
{"id":"74DA3895C4DA","area":"taichung","org":"es","name":"臺中市光隆國小","en":"","addr":"41148 臺中市太平區光興路487巷5號","lat":24.104727,"lon":120.727859},
{"id":"74DA3895C2DE","area":"taichung","org":"es","name":"臺中市頭汴國小","en":"","addr":"41150 臺中市太平區頭汴里北田路20號","lat":24.123217,"lon":120.751465},
{"id":"74DA3895C45E","area":"taichung","org":"es","name":"臺中市新光國小","en":"","addr":"41156 臺中市太平區新光里樹德一街136巷30號","lat":24.151842,"lon":120.706551},
{"id":"74DA3895C2E0","area":"taichung","org":"es","name":"臺中市東汴國小","en":"","addr":"41150 臺中市太平區東汴里山田路100號","lat":24.117716,"lon":120.795815},
{"id":"74DA3895C45C","area":"taichung","org":"es","name":"臺中市黃竹國小","en":"","addr":"41148 臺中市太平區黃竹里竹村路41號","lat":24.083748,"lon":120.752472},
{"id":"74DA3895C2C6","area":"taichung","org":"es","name":"臺中市建平國小","en":"","addr":"41146 臺中市太平區精美路201號","lat":24.124155,"lon":120.724693},
{"id":"74DA3895C464","area":"taichung","org":"es","name":"臺中市中華國小","en":"","addr":"41160 臺中市太平區大源路1-20號","lat":24.147194,"lon":120.725967},
{"id":"74DA3895C472","area":"taichung","org":"es","name":"臺中市東平國小","en":"","addr":"41167 臺中市太平區中興東路213號","lat":24.132355,"lon":120.723549},
{"id":"74DA3895C462","area":"taichung","org":"es","name":"臺中市新平國小","en":"","addr":"41169 臺中市太平區樹孝路336巷9號","lat":24.149223,"lon":120.716064},
{"id":"74DA3895C470","area":"taichung","org":"es","name":"臺中市車籠埔國小","en":"","addr":"41164 臺中市太平區光明路10-2號","lat":24.109949,"lon":120.731926},
{"id":"74DA3895C2C8","area":"taichung","org":"es","name":"臺中市長億國小","en":"","addr":"411 臺中市太平區太平三街295號","lat":24.113422,"lon":120.715538},
{"id":"74DA3895C402","area":"taichung","org":"es","name":"臺中市梨山國中小","en":"","addr":"42447 臺中市和平區梨山里福壽路10號","lat":24.247652,"lon":121.242844},
{"id":"74DA3895C39C","area":"taichung","org":"es","name":"臺中市光復國中小","en":"","addr":"41354 臺中市霧峰區南柳里柳豐路535號","lat":24.043022,"lon":120.689545},
{"id":"74DA3895E010","area":"tainan","org":"es","name":"臺南市市立七股國小","en":"","addr":"臺南市七股區大埕里395號","lat":23.139372,"lon":120.138512}, 
{"id":"74DA3895DE5E","area":"tainan","org":"es","name":"臺南市市立後港國小","en":"","addr":"臺南市七股區大潭里台潭1號","lat":23.184117,"lon":120.137439}, 
{"id":"74DA3895DE5C","area":"tainan","org":"es","name":"臺南市市立竹橋國小","en":"","addr":"臺南市七股區竹橋里130號","lat":23.101795,"lon":120.158936}, 
{"id":"74DA3895DE76","area":"tainan","org":"es","name":"臺南市市立三股國小","en":"","addr":"臺南市七股區三股里100號","lat":23.101842,"lon":120.116981}, 
{"id":"74DA3895DE72","area":"tainan","org":"es","name":"臺南市市立光復國小","en":"","addr":"臺南市七股區塩埕里1號","lat":23.148821,"lon":120.107068}, 
{"id":"74DA3895DE56","area":"tainan","org":"es","name":"臺南市市立篤加國小","en":"","addr":"臺南市七股區篤加里120號","lat":23.159948,"lon":120.13533}, 
{"id":"74DA3895DE54","area":"tainan","org":"es","name":"臺南市市立龍山國小","en":"","addr":"臺南市七股區龍山里12號","lat":23.136963,"lon":120.115845}, 
{"id":"74DA3895DE52","area":"tainan","org":"es","name":"臺南市市立建功國小","en":"","addr":"臺南市七股區十份里74之1號","lat":23.093739,"lon":120.09874}, 
{"id":"74DA3895DE62","area":"tainan","org":"es","name":"臺南市市立大文國小","en":"","addr":"臺南市七股區大寮里36之2號","lat":23.150444,"lon":120.153519}, 
{"id":"74DA3895DE60","area":"tainan","org":"es","name":"臺南市市立樹林國小","en":"","addr":"臺南市七股區樹林里65之11號","lat":23.111707,"lon":120.154635}, 
{"id":"74DA3895DE50","area":"tainan","org":"es","name":"臺南市市立下營國小","en":"","addr":"臺南市下營區仁里里13鄰中山路二段72號","lat":23.230663,"lon":120.262077}, 
{"id":"74DA3895DE64","area":"tainan","org":"es","name":"臺南市市立中營國小","en":"","addr":"臺南市下營區開化里270號","lat":23.212951,"lon":120.276647}, 
{"id":"74DA3895DE66","area":"tainan","org":"es","name":"臺南市市立賀建國小","en":"","addr":"臺南市下營區賀建里麻豆寮49號","lat":23.254707,"lon":120.296028}, 
{"id":"74DA3895DE58","area":"tainan","org":"es","name":"臺南市市立甲中國小","en":"","addr":"臺南市下營區甲中里71號","lat":23.250214,"lon":120.272509}, 
{"id":"74DA3895DE5A","area":"tainan","org":"es","name":"臺南市市立東興國小","en":"","addr":"臺南市下營區新興里東興一街112號","lat":23.23872,"lon":120.267585}, 
{"id":"74DA3895DE74","area":"tainan","org":"es","name":"臺南市市立大內國小","en":"","addr":"臺南市大內區大內里63號","lat":23.118732,"lon":120.36071}, 
{"id":"74DA3895DE80","area":"tainan","org":"es","name":"臺南市市立二溪國小","en":"","addr":"臺南市大內區二溪里154號","lat":23.122465,"lon":120.393021}, 
{"id":"74DA3895DE82","area":"tainan","org":"es","name":"臺南市市立大內國小-頭社分校","en":"","addr":"臺南市大內區頭社里10號","lat":23.142196,"lon":120.401191}, 
{"id":"74DA3895DE84","area":"tainan","org":"es","name":"臺南市市立山上國小","en":"","addr":"臺南市山上區南洲里42號","lat":23.100719,"lon":120.355163}, 
{"id":"74DA3895DE6A","area":"tainan","org":"es","name":"臺南市市立協進國小","en":"","addr":"臺南市中西區金華路四段17號","lat":22.997241,"lon":120.194083}, 
{"id":"74DA3895DF2A","area":"tainan","org":"es","name":"臺南市市立新南國小","en":"","addr":"臺南市中西區府前路二段258巷57號","lat":22.993113,"lon":120.182946}, 
{"id":"74DA3895DF28","area":"tainan","org":"es","name":"臺南市市立成功國小","en":"","addr":"臺南市中西區赤嵌里成功路235號","lat":22.998805,"lon":120.20336}, 
{"id":"74DA3895DF26","area":"tainan","org":"es","name":"臺南市市立永福國小","en":"","addr":"臺南市中西區永福路二段86號","lat":22.993052,"lon":120.201298}, 
{"id":"74DA3895DF24","area":"tainan","org":"es","name":"臺南市市立忠義國小","en":"","addr":"臺南市中西區永華里忠義路二段2號","lat":22.989477,"lon":120.204303}, 
{"id":"74DA3895DF40","area":"tainan","org":"es","name":"臺南市市立進學國小","en":"","addr":"臺南市中西區南寧街47號","lat":22.984995,"lon":120.200965}, 
{"id":"74DA3895DF2C","area":"tainan","org":"es","name":"臺南市市立仁德國小","en":"","addr":"臺南市仁德區中正路二段806號","lat":22.96277,"lon":120.253689}, 
{"id":"74DA3895DF3A","area":"tainan","org":"es","name":"臺南市市立文賢國小","en":"","addr":"臺南市仁德區保安里文賢路一段886號","lat":22.922599,"lon":120.236042}, 
{"id":"74DA3895DF2E","area":"tainan","org":"es","name":"臺南市市立長興國小","en":"","addr":"臺南市仁德區土庫路6號","lat":22.990719,"lon":120.260428}, 
{"id":"74DA3895DF36","area":"tainan","org":"es","name":"臺南市市立依仁國小","en":"","addr":"臺南市仁德區中洲里港墘3號","lat":22.912665,"lon":120.261218}, 
{"id":"74DA3895DF38","area":"tainan","org":"es","name":"臺南市市立大甲國小","en":"","addr":"臺南市仁德區大甲里中正西路360巷30號","lat":22.919314,"lon":120.216472}, 
{"id":"74DA3895DF30","area":"tainan","org":"es","name":"臺南市市立仁和國小","en":"","addr":"臺南市仁德區仁愛里保仁路68號","lat":22.959976,"lon":120.222191}, 
{"id":"74DA3895E1A6","area":"tainan","org":"es","name":"臺南市市立德南國小","en":"","addr":"臺南市仁德區後壁里中正路二段209號","lat":22.948712,"lon":120.25108}, 
{"id":"74DA3895E1A8","area":"tainan","org":"es","name":"臺南市市立虎山國小","en":"","addr":"臺南市仁德區成功里虎山一街100號","lat":22.945451,"lon":120.229906}, 
{"id":"74DA3895E1AA","area":"tainan","org":"es","name":"臺南市市立六甲國小","en":"","addr":"臺南市六甲區中正路319號","lat":23.225844,"lon":120.349684}, 
{"id":"74DA3895E1A2","area":"tainan","org":"es","name":"臺南市市立林鳳國小","en":"","addr":"臺南市六甲區中社里林鳳營240號","lat":23.240969,"lon":120.317726}, 
{"id":"74DA3895E1AE","area":"tainan","org":"es","name":"臺南市市立六甲國小-湖東分校","en":"","addr":"臺南市六甲區王爺里24號","lat":23.2238524,"lon":120.3954282}, 
{"id":"74DA3895E1B0","area":"tainan","org":"es","name":"臺南市市立嘉南國小","en":"","addr":"臺南市六甲區龍湖里11鄰珊瑚路301號","lat":23.217467,"lon":120.364966}, 
{"id":"74DA3895E1B2","area":"tainan","org":"es","name":"臺南市市立北門國小","en":"","addr":"臺南市北門區北門里舊埕3號","lat":23.265091,"lon":120.125188}, 
{"id":"74DA3895DFB8","area":"tainan","org":"es","name":"臺南市市立蚵寮國小","en":"","addr":"臺南市北門區鯤江里791號","lat":23.286154,"lon":120.138009}, 
{"id":"74DA3895DF6C","area":"tainan","org":"es","name":"臺南市市立文山國小","en":"","addr":"臺南市北門區中樞里50號","lat":23.241067,"lon":120.126317}, 
{"id":"74DA3895E01A","area":"tainan","org":"es","name":"臺南市市立錦湖國小","en":"","addr":"臺南市北門區錦湖里75號","lat":23.296904,"lon":120.1689}, 
{"id":"74DA3895E006","area":"tainan","org":"es","name":"臺南市市立雙春國小","en":"","addr":"臺南市北門區雙春里35之2號","lat":23.301079,"lon":120.125059}, 
{"id":"74DA3895E008","area":"tainan","org":"es","name":"臺南市市立三慈國小","en":"","addr":"臺南市北門區慈安里381號","lat":23.238663,"lon":120.109749}, 
{"id":"74DA3895E00A","area":"tainan","org":"es","name":"臺南市市立北門國小-玉湖分校","en":"","addr":"臺南市北門區玉港里39之3號","lat":23.2689137,"lon":120.144496},